[
  {
    "startTime": "2012-03-08T08:45:00.000+05:30",
    "endTime": "2012-03-08T11:00:00.000+05:30",
    "startCity": "Ranchi",
    "startLatLng": "23.3143, 85.3217",
    "endCity": "Mumbai",
    "endLatLng": "19.0887, 72.8679",
    "distanceMeters": 1373197,
    "durationSeconds": 8100
  },
  {
    "startTime": "2012-03-08T14:00:00.000+05:30",
    "endTime": "2012-03-08T15:40:00.000+05:30",
    "startCity": "Mumbai",
    "startLatLng": "19.0887, 72.8679",
    "endCity": "Bangalore",
    "endLatLng": "13.1979, 77.7063",
    "distanceMeters": 834163,
    "durationSeconds": 6000
  },
  {
    "startTime": "2012-04-22T13:25:00.000+05:30",
    "endTime": "2012-04-22T15:15:00.000+05:30",
    "startCity": "Kolkata",
    "startLatLng": "22.6547, 88.4467",
    "endCity": "Hyderabad",
    "endLatLng": "17.23132, 78.42986",
    "distanceMeters": 1207672,
    "durationSeconds": 6600
  },
  {
    "startTime": "2012-06-17T15:00:00.000+05:30",
    "endTime": "2012-06-17T16:15:00.000+05:30",
    "startCity": "Hyderabad",
    "startLatLng": "17.23132, 78.42986",
    "endCity": "Mumbai",
    "endLatLng": "19.0887, 72.8679",
    "distanceMeters": 622839,
    "durationSeconds": 4500
  },
  {
    "startTime": "2012-10-19T05:38:24.000+05:30",
    "endTime": "2012-10-19T16:21:23.000+05:30",
    "startCity": "Mumbai",
    "startLatLng": "19.0887, 72.8679",
    "endCity": "Ranchi",
    "endLatLng": "23.3143, 85.3217",
    "distanceMeters": 1373197,
    "durationSeconds": 38579
  },
  {
    "startTime": "2012-10-29T07:36:24.000+05:30",
    "endTime": "2012-10-30T13:09:09.000+05:30",
    "startCity": "Ranchi",
    "startLatLng": "23.3143, 85.3217",
    "endCity": "Mumbai",
    "endLatLng": "19.0887, 72.8679",
    "distanceMeters": 1373197,
    "durationSeconds": 106365
  },
  {
    "startTime": "2013-02-24T20:05:00.000+05:30",
    "endTime": "2013-02-24T21:40:00.000+05:30",
    "startCity": "Mumbai",
    "startLatLng": "19.0887, 72.8679",
    "endCity": "Bangalore",
    "endLatLng": "13.1979, 77.7063",
    "distanceMeters": 834163,
    "durationSeconds": 5700
  },
  {
    "startTime": "2013-02-25T21:30:00.000+05:30",
    "endTime": "2013-02-25T23:10:00.000+05:30",
    "startCity": "Bangalore",
    "startLatLng": "13.1979, 77.7063",
    "endCity": "Mumbai",
    "endLatLng": "19.0887, 72.8679",
    "distanceMeters": 834163,
    "durationSeconds": 6000
  },
  {
    "startTime": "2013-03-21T09:53:49.000+05:30",
    "endTime": "2013-03-21T14:45:00.000+05:30",
    "startCity": "Mumbai",
    "startLatLng": "19.0887, 72.8679",
    "endCity": "Ranchi",
    "endLatLng": "23.3143, 85.3217",
    "distanceMeters": 1373197,
    "durationSeconds": 17471
  },
  {
    "startTime": "2013-04-02T18:34:11.000+05:30",
    "endTime": "2013-04-03T11:26:10.000+05:30",
    "startCity": "Ranchi",
    "startLatLng": "23.3143, 85.3217",
    "endCity": "Mumbai",
    "endLatLng": "19.0887, 72.8679",
    "distanceMeters": 1373197,
    "durationSeconds": 60719
  },
  {
    "startTime": "2013-09-02T09:24:05.000+05:30",
    "endTime": "2013-09-02T21:54:17.000+05:30",
    "startCity": "Mumbai",
    "startLatLng": "19.0887, 72.8679",
    "endCity": "Kanpur",
    "endLatLng": "26.4043, 80.4101",
    "distanceMeters": 1121843,
    "durationSeconds": 45012
  },
  {
    "startTime": "2013-09-04T12:43:00.000+05:30",
    "endTime": "2013-09-06T01:32:10.000+05:30",
    "startCity": "Lucknow",
    "startLatLng": "26.7606, 80.8893",
    "endCity": "Mumbai",
    "endLatLng": "19.0887, 72.8679",
    "distanceMeters": 1183583,
    "durationSeconds": 132550
  },
  {
    "startTime": "2013-10-09T10:14:08.000+05:30",
    "endTime": "2013-10-09T15:27:46.000+05:30",
    "startCity": "Mumbai",
    "startLatLng": "19.0887, 72.8679",
    "endCity": "Allahabad",
    "endLatLng": "25.4401, 81.7339",
    "distanceMeters": 1153104,
    "durationSeconds": 18818
  },
  {
    "startTime": "2013-10-11T10:35:55.000+05:30",
    "endTime": "2013-10-11T12:50:40.000+05:30",
    "startCity": "Allahabad",
    "startLatLng": "25.4401, 81.7339",
    "endCity": "Mumbai",
    "endLatLng": "19.0887, 72.8679",
    "distanceMeters": 1153104,
    "durationSeconds": 8085
  },
  {
    "startTime": "2013-10-12T11:06:43.000+05:30",
    "endTime": "2013-10-12T13:24:24.000+05:30",
    "startCity": "Mumbai",
    "startLatLng": "19.0887, 72.8679",
    "endCity": "Patna",
    "endLatLng": "25.5913, 85.088",
    "distanceMeters": 1448792,
    "durationSeconds": 8261
  },
  {
    "startTime": "2013-10-12T14:17:59.000+05:30",
    "endTime": "2013-10-12T15:16:31.000+05:30",
    "startCity": "Patna",
    "startLatLng": "25.5913, 85.088",
    "endCity": "Ranchi",
    "endLatLng": "23.3143, 85.3217",
    "distanceMeters": 254293,
    "durationSeconds": 3512
  },
  {
    "startTime": "2013-10-21T18:11:21.000+05:30",
    "endTime": "2013-10-21T19:06:58.000+05:30",
    "startCity": "Ranchi",
    "startLatLng": "23.3143, 85.3217",
    "endCity": "Mumbai",
    "endLatLng": "19.0887, 72.8679",
    "distanceMeters": 1373197,
    "durationSeconds": 3337
  },
  {
    "startTime": "2013-11-30T08:23:52.000+05:30",
    "endTime": "2013-11-30T18:27:57.000+05:30",
    "startCity": "Mumbai",
    "startLatLng": "19.0887, 72.8679",
    "endCity": "Guwahati",
    "endLatLng": "26.1061, 91.5859",
    "distanceMeters": 2071068,
    "durationSeconds": 36245
  },
  {
    "startTime": "2014-02-22T07:40:20.000+05:30",
    "endTime": "2014-02-22T11:54:04.000+05:30",
    "startCity": "Mumbai",
    "startLatLng": "19.0887, 72.8679",
    "endCity": "Bangalore",
    "endLatLng": "13.1979, 77.7063",
    "distanceMeters": 834163,
    "durationSeconds": 15224
  },
  {
    "startTime": "2014-02-24T23:07:47.000+05:30",
    "endTime": "2014-02-24T23:46:17.000+05:30",
    "startCity": "Bangalore",
    "startLatLng": "13.1979, 77.7063",
    "endCity": "Mumbai",
    "endLatLng": "19.0887, 72.8679",
    "distanceMeters": 834163,
    "durationSeconds": 2310
  },
  {
    "startTime": "2014-03-01T11:32:25.000+05:30",
    "endTime": "2014-03-01T22:06:52.000+05:30",
    "startCity": "Mumbai",
    "startLatLng": "19.0887, 72.8679",
    "endCity": "Srinagar",
    "endLatLng": "33.9871, 74.7742",
    "distanceMeters": 1667339,
    "durationSeconds": 38067
  },
  {
    "startTime": "2014-03-17T14:45:00.000+05:30",
    "endTime": "2014-03-17T18:50:00.000+05:30",
    "startCity": "Amritsar",
    "startLatLng": "31.7096, 74.7973",
    "endCity": "Mumbai",
    "endLatLng": "19.0887, 72.8679",
    "distanceMeters": 1416608,
    "durationSeconds": 14700
  },
  {
    "startTime": "2014-06-22T11:50:00.000+05:30",
    "endTime": "2014-06-22T13:45:00.000+05:30",
    "startCity": "Mumbai",
    "startLatLng": "19.0887, 72.8679",
    "endCity": "Chennai",
    "endLatLng": "12.99001, 80.1693",
    "distanceMeters": 1033405,
    "durationSeconds": 6900
  },
  {
    "startTime": "2014-06-22T14:30:00.000+05:30",
    "endTime": "2014-06-22T15:50:00.000+05:30",
    "startCity": "Chennai",
    "startLatLng": "12.99001, 80.1693",
    "endCity": "Madurai",
    "endLatLng": "9.83451, 78.0934",
    "distanceMeters": 417487,
    "durationSeconds": 4800
  },
  {
    "startTime": "2014-07-01T07:33:53.000+05:30",
    "endTime": "2014-07-01T10:10:00.000+05:30",
    "startCity": "Chennai",
    "startLatLng": "12.99001, 80.1693",
    "endCity": "Ranchi",
    "endLatLng": "23.3143, 85.3217",
    "distanceMeters": 1270127,
    "durationSeconds": 9367
  },
  {
    "startTime": "2014-07-01T11:50:00.000+05:30",
    "endTime": "2014-07-01T12:55:00.000+05:30",
    "startCity": "Chennai",
    "startLatLng": "12.99001, 80.1693",
    "endCity": "Ranchi",
    "endLatLng": "23.3143, 85.3217",
    "distanceMeters": 1270127,
    "durationSeconds": 3900
  },
  {
    "startTime": "2014-07-14T15:19:30.000+05:30",
    "endTime": "2014-07-14T17:10:00.000+05:30",
    "startCity": "Ranchi",
    "startLatLng": "23.3143, 85.3217",
    "endCity": "New Delhi",
    "endLatLng": "28.70579, 77.342137",
    "distanceMeters": 997138,
    "durationSeconds": 6630
  },
  {
    "startTime": "2014-07-15T09:46:16.000+05:30",
    "endTime": "2014-07-15T10:45:00.000+05:30",
    "startCity": "New Delhi",
    "startLatLng": "28.5665, 77.1031",
    "endCity": "Chandigarh",
    "endLatLng": "30.6735, 76.7885",
    "distanceMeters": 236253,
    "durationSeconds": 3524
  },
  {
    "startTime": "2014-07-31T14:45:00.000+05:30",
    "endTime": "2014-07-31T19:05:00.000+05:30",
    "startCity": "Srinagar",
    "startLatLng": "33.9871, 74.7742",
    "endCity": "Mumbai",
    "endLatLng": "19.0887, 72.8679",
    "distanceMeters": 1667339,
    "durationSeconds": 15600
  },
  {
    "startTime": "2015-01-24T07:08:39.000+05:30",
    "endTime": "2015-01-24T12:07:13.000+05:30",
    "startCity": "Mumbai",
    "startLatLng": "19.0887, 72.8679",
    "endCity": "Ranchi",
    "endLatLng": "23.3143, 85.3217",
    "distanceMeters": 1373197,
    "durationSeconds": 17914
  },
  {
    "startTime": "2015-02-03T13:02:44.000+05:30",
    "endTime": "2015-02-03T19:18:08.000+05:30",
    "startCity": "Ranchi",
    "startLatLng": "23.3143, 85.3217",
    "endCity": "Mumbai",
    "endLatLng": "19.0887, 72.8679",
    "distanceMeters": 1373197,
    "durationSeconds": 22524
  },
  {
    "startTime": "2015-02-18T05:37:10.000+05:30",
    "endTime": "2015-02-18T08:32:12.000+05:30",
    "startCity": "Mumbai",
    "startLatLng": "19.0887, 72.8679",
    "endCity": "New Delhi",
    "endLatLng": "28.5665, 77.1031",
    "distanceMeters": 1138230,
    "durationSeconds": 10502
  },
  {
    "startTime": "2015-02-18T09:46:43.000+05:30",
    "endTime": "2015-02-18T11:25:00.000+05:30",
    "startCity": "New Delhi",
    "startLatLng": "28.5665, 77.1031",
    "endCity": "Srinagar",
    "endLatLng": "33.9871, 74.7742",
    "distanceMeters": 642033,
    "durationSeconds": 5897
  },
  {
    "startTime": "2015-03-03T15:22:28.000+05:30",
    "endTime": "2015-03-03T18:03:44.000+05:30",
    "startCity": "Srinagar",
    "startLatLng": "33.9871, 74.7742",
    "endCity": "Mumbai",
    "endLatLng": "19.0887, 72.8679",
    "distanceMeters": 1667339,
    "durationSeconds": 9676
  },
  {
    "startTime": "2015-05-01T05:51:48.000+05:30",
    "endTime": "2015-05-01T10:55:43.000+05:30",
    "startCity": "Mumbai",
    "startLatLng": "19.0887, 72.8679",
    "endCity": "Port Blair",
    "endLatLng": "11.6412, 92.7297",
    "distanceMeters": 2282516,
    "durationSeconds": 18235
  },
  {
    "startTime": "2015-05-10T13:50:00.000+05:30",
    "endTime": "2015-05-10T16:07:49.000+05:30",
    "startCity": "Port Blair",
    "startLatLng": "11.6412, 92.7297",
    "endCity": "Chennai",
    "endLatLng": "12.99001, 80.1693",
    "distanceMeters": 1372570,
    "durationSeconds": 8269
  },
  {
    "startTime": "2015-05-10T19:19:00.000+05:30",
    "endTime": "2015-05-10T21:15:00.000+05:30",
    "startCity": "Chennai",
    "startLatLng": "12.99001, 80.1693",
    "endCity": "Bangalore",
    "endLatLng": "13.1979, 77.7063",
    "distanceMeters": 267751,
    "durationSeconds": 6960
  },
  {
    "startTime": "2015-05-10T22:06:00.000+05:30",
    "endTime": "2015-05-10T23:52:58.000+05:30",
    "startCity": "Bangalore",
    "startLatLng": "13.1979, 77.7063",
    "endCity": "Mumbai",
    "endLatLng": "19.0887, 72.8679",
    "distanceMeters": 834163,
    "durationSeconds": 6418
  },
  {
    "startTime": "2015-11-05T11:15:00.000+05:30",
    "endTime": "2015-11-05T13:40:00.000+05:30",
    "startCity": "Mumbai",
    "startLatLng": "19.0887, 72.8679",
    "endCity": "Ranchi",
    "endLatLng": "23.3143, 85.3217",
    "distanceMeters": 1373197,
    "durationSeconds": 8700
  },
  {
    "startTime": "2015-11-05T14:10:00.000+05:30",
    "endTime": "2015-11-05T14:55:00.000+05:30",
    "startCity": "Mumbai",
    "startLatLng": "19.0887, 72.8679",
    "endCity": "Ranchi",
    "endLatLng": "23.3143, 85.3217",
    "distanceMeters": 1373197,
    "durationSeconds": 2700
  },
  {
    "startTime": "2015-11-19T17:21:28.000+05:30",
    "endTime": "2015-11-19T19:22:21.000+05:30",
    "startCity": "Ranchi",
    "startLatLng": "23.3143, 85.3217",
    "endCity": "Mumbai",
    "endLatLng": "19.0887, 72.8679",
    "distanceMeters": 1373197,
    "durationSeconds": 7253
  },
  {
    "startTime": "2015-11-29T05:40:41.000+05:30",
    "endTime": "2015-11-29T08:37:50.000+05:30",
    "startCity": "Mumbai",
    "startLatLng": "19.0887, 72.8679",
    "endCity": "Bangalore",
    "endLatLng": "13.1979, 77.7063",
    "distanceMeters": 834163,
    "durationSeconds": 10629
  },
  {
    "startTime": "2016-04-18T22:17:05.000+05:30",
    "endTime": "2016-04-19T01:09:02.000+05:30",
    "startCity": "Bangalore",
    "startLatLng": "13.1979, 77.7063",
    "endCity": "Chennai",
    "endLatLng": "12.99001, 80.1693",
    "distanceMeters": 267751,
    "durationSeconds": 10317
  },
  {
    "startTime": "2016-04-20T12:36:14.000+05:30",
    "endTime": "2016-04-20T14:05:58.000+05:30",
    "startCity": "Chennai",
    "startLatLng": "12.99001, 80.1693",
    "endCity": "Bangalore",
    "endLatLng": "13.1979, 77.7063",
    "distanceMeters": 267751,
    "durationSeconds": 5384
  },
  {
    "startTime": "2016-05-02T20:57:09.000+05:30",
    "endTime": "2016-05-03T03:04:01.000+05:30",
    "startCity": "Chennai",
    "startLatLng": "12.99001, 80.1693",
    "endCity": "Abu Dhabi",
    "endLatLng": "24.433, 54.6511",
    "distanceMeters": 2965944,
    "durationSeconds": 22012
  },
  {
    "startTime": "2016-05-03T03:50:10.000+05:30",
    "endTime": "2016-05-03T13:32:27.000+05:30",
    "startCity": "Abu Dhabi",
    "startLatLng": "24.433, 54.6511",
    "endCity": "Dublin",
    "endLatLng": "53.4213, -6.27007",
    "distanceMeters": 5940780,
    "durationSeconds": 34937
  },
  {
    "startTime": "2016-05-03T16:30:55.000+05:30",
    "endTime": "2016-05-04T05:07:04.000+05:30",
    "startCity": "Dublin",
    "startLatLng": "53.4213, -6.27007",
    "endCity": "San Francisco",
    "endLatLng": "37.618806, -122.375417",
    "distanceMeters": 8183050,
    "durationSeconds": 45369
  },
  {
    "startTime": "2016-05-09T21:29:06.000+05:30",
    "endTime": "2016-05-10T13:21:15.000+05:30",
    "startCity": "San Francisco",
    "startLatLng": "37.618806, -122.375417",
    "endCity": "Abu Dhabi",
    "endLatLng": "24.433, 54.6511",
    "distanceMeters": 13108240,
    "durationSeconds": 57129
  },
  {
    "startTime": "2016-05-10T15:08:57.000+05:30",
    "endTime": "2016-05-10T19:14:38.000+05:30",
    "startCity": "Abu Dhabi",
    "startLatLng": "24.433, 54.6511",
    "endCity": "Bangalore",
    "endLatLng": "13.1979, 77.7063",
    "distanceMeters": 2723103,
    "durationSeconds": 14741
  },
  {
    "startTime": "2016-06-13T16:43:28.000+05:30",
    "endTime": "2016-06-13T20:31:17.000+05:30",
    "startCity": "Bangalore",
    "startLatLng": "13.1979, 77.7063",
    "endCity": "Muscat",
    "endLatLng": "23.5933, 58.2844",
    "distanceMeters": 2348653,
    "durationSeconds": 13669
  },
  {
    "startTime": "2016-06-14T01:23:45.000+05:30",
    "endTime": "2016-06-14T10:57:30.000+05:30",
    "startCity": "Muscat",
    "startLatLng": "23.5933, 58.2844",
    "endCity": "Amsterdam",
    "endLatLng": "52.3086, 4.76389",
    "distanceMeters": 5500900,
    "durationSeconds": 34425
  },
  {
    "startTime": "2016-09-04T21:42:05.000+05:30",
    "endTime": "2016-09-05T00:31:31.000+05:30",
    "startCity": "Amsterdam",
    "startLatLng": "52.3086, 4.76389",
    "endCity": "Dubrovnik",
    "endLatLng": "42.5614, 18.2682",
    "distanceMeters": 1480698,
    "durationSeconds": 10166
  },
  {
    "startTime": "2016-11-30T00:18:52.000+05:30",
    "endTime": "2016-11-30T03:56:08.000+05:30",
    "startCity": "Athens",
    "startLatLng": "37.9364, 23.9445",
    "endCity": "Amsterdam",
    "endLatLng": "52.3086, 4.76389",
    "distanceMeters": 2181748,
    "durationSeconds": 13036
  },
  {
    "startTime": "2016-11-30T21:45:55.000+05:30",
    "endTime": "2016-11-30T23:15:29.000+05:30",
    "startCity": "Amsterdam",
    "startLatLng": "52.3086, 4.76389",
    "endCity": "Frankfurt am Main",
    "endLatLng": "50.0264, 8.54313",
    "distanceMeters": 365741,
    "durationSeconds": 5374
  },
  {
    "startTime": "2016-12-01T01:24:15.000+05:30",
    "endTime": "2016-12-01T09:46:08.000+05:30",
    "startCity": "Frankfurt am Main",
    "startLatLng": "50.0264, 8.54313",
    "endCity": "New Delhi",
    "endLatLng": "28.5665, 77.1031",
    "distanceMeters": 6122631,
    "durationSeconds": 30113
  },
  {
    "startTime": "2017-01-29T13:29:52.000+05:30",
    "endTime": "2017-01-29T15:58:40.000+05:30",
    "startCity": "Ranchi",
    "startLatLng": "23.3143, 85.3217",
    "endCity": "Kolkata",
    "endLatLng": "22.6547, 88.4467",
    "distanceMeters": 328189,
    "durationSeconds": 8928
  },
  {
    "startTime": "2017-02-05T11:26:14.000+05:30",
    "endTime": "2017-02-05T12:46:35.000+05:30",
    "startCity": "Kolkata",
    "startLatLng": "22.6547, 88.4467",
    "endCity": "Ranchi",
    "endLatLng": "23.3143, 85.3217",
    "distanceMeters": 328189,
    "durationSeconds": 4821
  },
  {
    "startTime": "2017-03-16T13:12:24.000+05:30",
    "endTime": "2017-03-16T14:20:20.000+05:30",
    "startCity": "Ranchi",
    "startLatLng": "23.3143, 85.3217",
    "endCity": "Kolkata",
    "endLatLng": "22.6547, 88.4467",
    "distanceMeters": 328189,
    "durationSeconds": 4076
  },
  {
    "startTime": "2017-03-18T12:49:21.000+05:30",
    "endTime": "2017-03-18T13:16:47.000+05:30",
    "startCity": "Kolkata",
    "startLatLng": "22.6547, 88.4467",
    "endCity": "Ranchi",
    "endLatLng": "23.3143, 85.3217",
    "distanceMeters": 328189,
    "durationSeconds": 1646
  },
  {
    "startTime": "2017-04-02T16:41:16.000+05:30",
    "endTime": "2017-04-02T19:11:07.000+05:30",
    "startCity": "Ranchi",
    "startLatLng": "23.3143, 85.3217",
    "endCity": "Mumbai",
    "endLatLng": "19.0887, 72.8679",
    "distanceMeters": 1373197,
    "durationSeconds": 8991
  },
  {
    "startTime": "2017-04-03T02:32:54.000+05:30",
    "endTime": "2017-04-03T12:49:27.000+05:30",
    "startCity": "Mumbai",
    "startLatLng": "19.0887, 72.8679",
    "endCity": "Amsterdam",
    "endLatLng": "52.3086, 4.76389",
    "distanceMeters": 6859514,
    "durationSeconds": 36993
  },
  {
    "startTime": "2017-04-06T14:30:28.000+05:30",
    "endTime": "2017-04-07T00:08:13.000+05:30",
    "startCity": "Amsterdam",
    "startLatLng": "52.3086, 4.76389",
    "endCity": "New Delhi",
    "endLatLng": "28.5665, 77.1031",
    "distanceMeters": 6363454,
    "durationSeconds": 34665
  },
  {
    "startTime": "2017-04-11T10:47:08.000+05:30",
    "endTime": "2017-04-11T13:29:51.000+05:30",
    "startCity": "New Delhi",
    "startLatLng": "28.5665, 77.1031",
    "endCity": "Dibrugarh",
    "endLatLng": "27.4839, 95.0169",
    "distanceMeters": 1760831,
    "durationSeconds": 9763
  },
  {
    "startTime": "2017-04-27T12:34:22.000+05:30",
    "endTime": "2017-04-27T14:05:30.000+05:30",
    "startCity": "Patna",
    "startLatLng": "25.5913, 85.088",
    "endCity": "Ranchi",
    "endLatLng": "23.3143, 85.3217",
    "distanceMeters": 254293,
    "durationSeconds": 5468
  },
  {
    "startTime": "2017-05-08T15:03:06.000+05:30",
    "endTime": "2017-05-08T18:12:22.000+05:30",
    "startCity": "Ranchi",
    "startLatLng": "23.3143, 85.3217",
    "endCity": "Mumbai",
    "endLatLng": "19.0887, 72.8679",
    "distanceMeters": 1373197,
    "durationSeconds": 11356
  },
  {
    "startTime": "2017-05-15T22:11:11.000+05:30",
    "endTime": "2017-05-16T01:00:37.000+05:30",
    "startCity": "Mumbai",
    "startLatLng": "19.0887, 72.8679",
    "endCity": "New Delhi",
    "endLatLng": "28.5665, 77.1031",
    "distanceMeters": 1138230,
    "durationSeconds": 10166
  },
  {
    "startTime": "2017-05-16T15:58:02.000+05:30",
    "endTime": "2017-05-16T17:11:18.000+05:30",
    "startCity": "New Delhi",
    "startLatLng": "28.5665, 77.1031",
    "endCity": "Dehradun",
    "endLatLng": "30.1897, 78.1803",
    "distanceMeters": 208495,
    "durationSeconds": 4396
  },
  {
    "startTime": "2017-05-22T12:04:05.000+05:30",
    "endTime": "2017-05-22T14:00:23.000+05:30",
    "startCity": "New Delhi",
    "startLatLng": "28.5665, 77.1031",
    "endCity": "Ranchi",
    "endLatLng": "23.3143, 85.3217",
    "distanceMeters": 1007666,
    "durationSeconds": 6978
  },
  {
    "startTime": "2017-05-24T00:08:59.000+05:30",
    "endTime": "2017-05-24T02:14:26.000+05:30",
    "startCity": "Kolkata",
    "startLatLng": "22.6547, 88.4467",
    "endCity": "Ranchi",
    "endLatLng": "23.3143, 85.3217",
    "distanceMeters": 328189,
    "durationSeconds": 7527
  },
  {
    "startTime": "2017-05-31T19:45:41.000+05:30",
    "endTime": "2017-05-31T22:15:25.000+05:30",
    "startCity": "Ranchi",
    "startLatLng": "23.3143, 85.3217",
    "endCity": "New Delhi",
    "endLatLng": "28.5665, 77.1031",
    "distanceMeters": 1007666,
    "durationSeconds": 8984
  },
  {
    "startTime": "2017-06-01T01:09:55.000+05:30",
    "endTime": "2017-06-01T13:02:48.000+05:30",
    "startCity": "New Delhi",
    "startLatLng": "28.5665, 77.1031",
    "endCity": "Amsterdam",
    "endLatLng": "52.3086, 4.76389",
    "distanceMeters": 6363454,
    "durationSeconds": 42773
  },
  {
    "startTime": "2017-11-26T20:09:13.000+05:30",
    "endTime": "2017-11-26T22:58:27.000+05:30",
    "startCity": "Eindhoven",
    "startLatLng": "51.4501, 5.37453",
    "endCity": "Sevilla",
    "endLatLng": "37.418, -5.89311",
    "distanceMeters": 1793895,
    "durationSeconds": 10154
  },
  {
    "startTime": "2017-12-03T13:57:10.000+05:30",
    "endTime": "2017-12-03T15:15:29.000+05:30",
    "startCity": "Barcelona",
    "startLatLng": "41.2971, 2.07846",
    "endCity": "Amsterdam",
    "endLatLng": "52.3086, 4.76389",
    "distanceMeters": 1241136,
    "durationSeconds": 4699
  },
  {
    "startTime": "2018-04-01T10:49:32.000+05:30",
    "endTime": "2018-04-01T12:20:41.000+05:30",
    "startCity": "Amsterdam",
    "startLatLng": "52.3086, 4.76389",
    "endCity": "Salzburg",
    "endLatLng": "47.7933, 13.0043",
    "distanceMeters": 772625,
    "durationSeconds": 5469
  },
  {
    "startTime": "2018-11-02T18:03:13.000+05:30",
    "endTime": "2018-11-02T21:00:00.000+05:30",
    "startCity": "Amsterdam",
    "startLatLng": "52.3086, 4.76389",
    "endCity": "Istanbul",
    "endLatLng": "40.8986, 29.3092",
    "distanceMeters": 2246488,
    "durationSeconds": 10607
  },
  {
    "startTime": "2018-11-02T23:35:00.000+05:30",
    "endTime": "2018-11-03T05:03:38.000+05:30",
    "startCity": "Amsterdam",
    "startLatLng": "52.3086, 4.76389",
    "endCity": "Dubai",
    "endLatLng": "25.2528, 55.3644",
    "distanceMeters": 5168637,
    "durationSeconds": 19718
  },
  {
    "startTime": "2018-11-03T12:20:02.000+05:30",
    "endTime": "2018-11-03T17:18:31.000+05:30",
    "startCity": "Dubai",
    "startLatLng": "25.2528, 55.3644",
    "endCity": "Bangalore",
    "endLatLng": "13.1979, 77.7063",
    "distanceMeters": 2695157,
    "durationSeconds": 17909
  },
  {
    "startTime": "2018-11-03T19:27:03.000+05:30",
    "endTime": "2018-11-03T22:13:39.000+05:30",
    "startCity": "Bangalore",
    "startLatLng": "13.1979, 77.7063",
    "endCity": "Ranchi",
    "endLatLng": "23.3143, 85.3217",
    "distanceMeters": 1381937,
    "durationSeconds": 9996
  },
  {
    "startTime": "2018-11-16T16:39:41.000+05:30",
    "endTime": "2018-11-16T20:31:49.000+05:30",
    "startCity": "Ranchi",
    "startLatLng": "23.3143, 85.3217",
    "endCity": "Mumbai",
    "endLatLng": "19.0887, 72.8679",
    "distanceMeters": 1373197,
    "durationSeconds": 13928
  },
  {
    "startTime": "2018-11-17T06:24:41.000+05:30",
    "endTime": "2018-11-17T14:31:26.000+05:30",
    "startCity": "Mumbai",
    "startLatLng": "19.0887, 72.8679",
    "endCity": "Istanbul",
    "endLatLng": "40.9769, 28.8146",
    "distanceMeters": 4819949,
    "durationSeconds": 29205
  },
  {
    "startTime": "2018-11-17T16:54:00.000+05:30",
    "endTime": "2018-11-17T20:46:49.000+05:30",
    "startCity": "Istanbul",
    "startLatLng": "40.9769, 28.8146",
    "endCity": "Amsterdam",
    "endLatLng": "52.3086, 4.76389",
    "distanceMeters": 2210074,
    "durationSeconds": 13969
  },
  {
    "startTime": "2019-01-02T10:49:12.000+05:30",
    "endTime": "2019-01-02T12:52:55.000+05:30",
    "startCity": "Budapest",
    "startLatLng": "47.4369, 19.2556",
    "endCity": "Eindhoven",
    "endLatLng": "51.4501, 5.37453",
    "distanceMeters": 1096071,
    "durationSeconds": 7423
  },
  {
    "startTime": "2019-04-29T01:07:34.000+05:30",
    "endTime": "2019-04-29T03:03:50.000+05:30",
    "startCity": "Stockholm",
    "startLatLng": "59.6519, 17.9186",
    "endCity": "Eindhoven",
    "endLatLng": "51.4501, 5.37453",
    "distanceMeters": 1201983,
    "durationSeconds": 6976
  },
  {
    "startTime": "2019-05-30T22:30:36.000+05:30",
    "endTime": "2019-05-31T00:41:18.000+05:30",
    "startCity": "Amsterdam",
    "startLatLng": "52.3086, 4.76389",
    "endCity": "Riga",
    "endLatLng": "56.9236, 23.9711",
    "distanceMeters": 1333238,
    "durationSeconds": 7842
  },
  {
    "startTime": "2019-05-31T01:59:44.000+05:30",
    "endTime": "2019-05-31T02:54:07.000+05:30",
    "startCity": "Riga",
    "startLatLng": "56.9236, 23.9711",
    "endCity": "Helsinki",
    "endLatLng": "60.3172, 24.9633",
    "distanceMeters": 381687,
    "durationSeconds": 3263
  },
  {
    "startTime": "2019-06-11T09:14:06.000+05:30",
    "endTime": "2019-06-11T10:31:23.000+05:30",
    "startCity": "Vilnius",
    "startLatLng": "54.6341, 25.2858",
    "endCity": "Warsaw",
    "endLatLng": "52.1657, 20.9671",
    "distanceMeters": 396494,
    "durationSeconds": 4637
  },
  {
    "startTime": "2019-06-11T10:44:40.000+05:30",
    "endTime": "2019-06-11T13:19:28.000+05:30",
    "startCity": "Warsaw",
    "startLatLng": "52.1657, 20.9671",
    "endCity": "Amsterdam",
    "endLatLng": "52.3086, 4.76389",
    "distanceMeters": 1101170,
    "durationSeconds": 9288
  },
  {
    "startTime": "2019-11-22T11:56:57.000+05:30",
    "endTime": "2019-11-22T14:17:00.000+05:30",
    "startCity": "Amsterdam",
    "startLatLng": "52.3086, 4.76389",
    "endCity": "Napoli",
    "endLatLng": "40.886, 14.2908",
    "distanceMeters": 1461087,
    "durationSeconds": 8403
  },
  {
    "startTime": "2019-11-25T00:02:28.000+05:30",
    "endTime": "2019-11-25T03:50:47.000+05:30",
    "startCity": "Napoli",
    "startLatLng": "40.886, 14.2908",
    "endCity": "Amsterdam",
    "endLatLng": "52.3086, 4.76389",
    "distanceMeters": 1461087,
    "durationSeconds": 13699
  },
  {
    "startTime": "2019-12-05T16:46:46.000+05:30",
    "endTime": "2019-12-05T19:11:28.000+05:30",
    "startCity": "Amsterdam",
    "startLatLng": "52.3086, 4.76389",
    "endCity": "Helsinki",
    "endLatLng": "60.3172, 24.9633",
    "distanceMeters": 1521304,
    "durationSeconds": 8682
  },
  {
    "startTime": "2019-12-05T23:06:08.000+05:30",
    "endTime": "2019-12-06T07:21:22.000+05:30",
    "startCity": "Helsinki",
    "startLatLng": "60.3172, 24.9633",
    "endCity": "New Delhi",
    "endLatLng": "28.5665, 77.1031",
    "distanceMeters": 5223057,
    "durationSeconds": 29714
  },
  {
    "startTime": "2019-12-06T11:31:08.000+05:30",
    "endTime": "2019-12-06T13:28:57.000+05:30",
    "startCity": "New Delhi",
    "startLatLng": "28.5665, 77.1031",
    "endCity": "Ranchi",
    "endLatLng": "23.3143, 85.3217",
    "distanceMeters": 1007666,
    "durationSeconds": 7069
  },
  {
    "startTime": "2019-12-21T20:11:24.000+05:30",
    "endTime": "2019-12-21T22:44:46.000+05:30",
    "startCity": "Ranchi",
    "startLatLng": "23.3143, 85.3217",
    "endCity": "New Delhi",
    "endLatLng": "28.5665, 77.1031",
    "distanceMeters": 1007666,
    "durationSeconds": 9202
  },
  {
    "startTime": "2019-12-22T09:29:56.000+05:30",
    "endTime": "2019-12-22T18:08:57.000+05:30",
    "startCity": "New Delhi",
    "startLatLng": "28.5665, 77.1031",
    "endCity": "Helsinki",
    "endLatLng": "60.3172, 24.9633",
    "distanceMeters": 5223057,
    "durationSeconds": 31141
  },
  {
    "startTime": "2019-12-22T20:37:28.000+05:30",
    "endTime": "2019-12-23T00:02:41.000+05:30",
    "startCity": "Helsinki",
    "startLatLng": "60.3172, 24.9633",
    "endCity": "Amsterdam",
    "endLatLng": "52.3086, 4.76389",
    "distanceMeters": 1521304,
    "durationSeconds": 12313
  },
  {
    "startTime": "2020-08-30T20:20:31.000+05:30",
    "endTime": "2020-08-30T21:33:51.000+05:30",
    "startCity": "Bale/Mulhouse",
    "startLatLng": "47.5896, 7.52991",
    "endCity": "Amsterdam",
    "endLatLng": "52.3086, 4.76389",
    "distanceMeters": 560703,
    "durationSeconds": 4400
  },
  {
    "startTime": "2021-03-07T22:27:44.000+05:30",
    "endTime": "2021-03-07T23:48:50.000+05:30",
    "startCity": "Amsterdam",
    "startLatLng": "52.3086, 4.76389",
    "endCity": "Frankfurt am Main",
    "endLatLng": "50.0264, 8.54313",
    "distanceMeters": 365741,
    "durationSeconds": 4866
  },
  {
    "startTime": "2021-03-08T00:14:54.000+05:30",
    "endTime": "2021-03-08T08:03:24.000+05:30",
    "startCity": "Frankfurt am Main",
    "startLatLng": "50.0264, 8.54313",
    "endCity": "New Delhi",
    "endLatLng": "28.5665, 77.1031",
    "distanceMeters": 6122631,
    "durationSeconds": 28110
  },
  {
    "startTime": "2021-03-08T14:27:42.000+05:30",
    "endTime": "2021-03-08T16:41:38.000+05:30",
    "startCity": "New Delhi",
    "startLatLng": "28.5665, 77.1031",
    "endCity": "Ranchi",
    "endLatLng": "23.3143, 85.3217",
    "distanceMeters": 1007666,
    "durationSeconds": 8036
  },
  {
    "startTime": "2021-03-19T16:51:59.000+05:30",
    "endTime": "2021-03-19T19:49:01.000+05:30",
    "startCity": "Ranchi",
    "startLatLng": "23.3143, 85.3217",
    "endCity": "Bangalore",
    "endLatLng": "13.1979, 77.7063",
    "distanceMeters": 1381937,
    "durationSeconds": 10622
  },
  {
    "startTime": "2021-03-27T13:41:54.000+05:30",
    "endTime": "2021-03-27T16:33:12.000+05:30",
    "startCity": "Bangalore",
    "startLatLng": "13.1979, 77.7063",
    "endCity": "Ranchi",
    "endLatLng": "23.3143, 85.3217",
    "distanceMeters": 1381937,
    "durationSeconds": 10278
  },
  {
    "startTime": "2021-05-10T15:23:32.000+05:30",
    "endTime": "2021-05-10T16:35:53.000+05:30",
    "startCity": "Ranchi",
    "startLatLng": "23.3143, 85.3217",
    "endCity": "Mumbai",
    "endLatLng": "19.0887, 72.8679",
    "distanceMeters": 1373197,
    "durationSeconds": 4341
  },
  {
    "startTime": "2021-05-11T02:18:58.000+05:30",
    "endTime": "2021-05-11T11:20:01.000+05:30",
    "startCity": "Mumbai",
    "startLatLng": "19.0887, 72.8679",
    "endCity": "Amsterdam",
    "endLatLng": "52.3086, 4.76389",
    "distanceMeters": 6859514,
    "durationSeconds": 32463
  },
  {
    "startTime": "2021-12-06T16:14:30.000+05:30",
    "endTime": "2021-12-06T19:56:40.000+05:30",
    "startCity": "Amsterdam",
    "startLatLng": "52.3086, 4.76389",
    "endCity": "Helsinki",
    "endLatLng": "60.3172, 24.9633",
    "distanceMeters": 1521304,
    "durationSeconds": 13330
  },
  {
    "startTime": "2021-12-07T00:30:24.000+05:30",
    "endTime": "2021-12-07T09:18:31.000+05:30",
    "startCity": "Helsinki",
    "startLatLng": "60.3172, 24.9633",
    "endCity": "New Delhi",
    "endLatLng": "28.5665, 77.1031",
    "distanceMeters": 5223057,
    "durationSeconds": 31687
  },
  {
    "startTime": "2021-12-07T11:55:52.000+05:30",
    "endTime": "2021-12-07T15:37:54.000+05:30",
    "startCity": "New Delhi",
    "startLatLng": "28.5665, 77.1031",
    "endCity": "Bangalore",
    "endLatLng": "13.1979, 77.7063",
    "distanceMeters": 1710049,
    "durationSeconds": 13322
  },
  {
    "startTime": "2021-12-12T12:55:00.000+05:30",
    "endTime": "2021-12-12T15:15:59.000+05:30",
    "startCity": "Bangalore",
    "startLatLng": "13.1979, 77.7063",
    "endCity": "Ranchi",
    "endLatLng": "23.3143, 85.3217",
    "distanceMeters": 1381937,
    "durationSeconds": 8459
  },
  {
    "startTime": "2021-12-24T14:12:26.000+05:30",
    "endTime": "2021-12-24T16:44:49.000+05:30",
    "startCity": "Ranchi",
    "startLatLng": "23.3143, 85.3217",
    "endCity": "Mumbai",
    "endLatLng": "19.0887, 72.8679",
    "distanceMeters": 1373197,
    "durationSeconds": 9143
  },
  {
    "startTime": "2021-12-24T20:55:10.000+05:30",
    "endTime": "2021-12-25T00:15:35.000+05:30",
    "startCity": "Mumbai",
    "startLatLng": "19.0887, 72.8679",
    "endCity": "Amritsar",
    "endLatLng": "31.7096, 74.7973",
    "distanceMeters": 1416608,
    "durationSeconds": 12025
  },
  {
    "startTime": "2021-12-28T22:48:45.000+05:30",
    "endTime": "2021-12-29T01:34:46.000+05:30",
    "startCity": "Amritsar",
    "startLatLng": "31.7096, 74.7973",
    "endCity": "Dabolim",
    "endLatLng": "15.3808, 73.8314",
    "distanceMeters": 1818319,
    "durationSeconds": 9961
  },
  {
    "startTime": "2022-01-02T14:56:13.000+05:30",
    "endTime": "2022-01-02T16:09:58.000+05:30",
    "startCity": "Dabolim",
    "startLatLng": "15.3808, 73.8314",
    "endCity": "Hyderabad",
    "endLatLng": "17.23132, 78.42986",
    "distanceMeters": 532116,
    "durationSeconds": 4425
  },
  {
    "startTime": "2022-01-02T18:26:28.000+05:30",
    "endTime": "2022-01-02T20:11:11.000+05:30",
    "startCity": "Hyderabad",
    "startLatLng": "17.23132, 78.42986",
    "endCity": "Ranchi",
    "endLatLng": "23.3143, 85.3217",
    "distanceMeters": 986672,
    "durationSeconds": 6283
  },
  {
    "startTime": "2022-01-12T19:50:39.000+05:30",
    "endTime": "2022-01-12T21:56:14.000+05:30",
    "startCity": "Ranchi",
    "startLatLng": "23.3143, 85.3217",
    "endCity": "New Delhi",
    "endLatLng": "28.5665, 77.1031",
    "distanceMeters": 1007666,
    "durationSeconds": 7535
  },
  {
    "startTime": "2022-01-18T00:58:08.000+05:30",
    "endTime": "2022-01-18T12:08:36.000+05:30",
    "startCity": "New Delhi",
    "startLatLng": "28.5665, 77.1031",
    "endCity": "Paris",
    "endLatLng": "49.0128, 2.55",
    "distanceMeters": 6565372,
    "durationSeconds": 40228
  },
  {
    "startTime": "2022-01-18T14:20:39.000+05:30",
    "endTime": "2022-01-18T15:46:37.000+05:30",
    "startCity": "Paris",
    "startLatLng": "49.0128, 2.55",
    "endCity": "Amsterdam",
    "endLatLng": "52.3086, 4.76389",
    "distanceMeters": 398269,
    "durationSeconds": 5158
  },
  {
    "startTime": "2022-02-06T11:40:00.000+05:30",
    "endTime": "2022-02-06T16:09:54.000+05:30",
    "startCity": "Amsterdam",
    "startLatLng": "52.3086, 4.76389",
    "endCity": "Tenerife Island",
    "endLatLng": "28.0445, -16.5725",
    "distanceMeters": 3223917,
    "durationSeconds": 16194
  },
  {
    "startTime": "2022-02-20T16:52:48.000+05:30",
    "endTime": "2022-02-20T22:18:54.000+05:30",
    "startCity": "Tenerife Island",
    "startLatLng": "28.0445, -16.5725",
    "endCity": "Amsterdam",
    "endLatLng": "52.3086, 4.76389",
    "distanceMeters": 3223917,
    "durationSeconds": 19566
  },
  {
    "startTime": "2022-03-12T00:14:41.000+05:30",
    "endTime": "2022-03-12T01:39:24.000+05:30",
    "startCity": "Amsterdam",
    "startLatLng": "52.3086, 4.76389",
    "endCity": "Zurich",
    "endLatLng": "47.4647, 8.54917",
    "distanceMeters": 602833,
    "durationSeconds": 5083
  },
  {
    "startTime": "2022-03-15T16:49:16.000+05:30",
    "endTime": "2022-03-15T18:35:45.000+05:30",
    "startCity": "Zurich",
    "startLatLng": "47.4647, 8.54917",
    "endCity": "Amsterdam",
    "endLatLng": "52.3086, 4.76389",
    "distanceMeters": 602833,
    "durationSeconds": 6389
  },
  {
    "startTime": "2022-04-02T16:26:10.000+05:30",
    "endTime": "2022-04-03T03:02:51.000+05:30",
    "startCity": "Amsterdam",
    "startLatLng": "52.3086, 4.76389",
    "endCity": "Las Vegas",
    "endLatLng": "36.080343, -115.152449",
    "distanceMeters": 8597118,
    "durationSeconds": 38201
  },
  {
    "startTime": "2022-04-06T04:28:12.000+05:30",
    "endTime": "2022-04-06T14:57:58.000+05:30",
    "startCity": "Las Vegas",
    "startLatLng": "36.080343, -115.152449",
    "endCity": "Amsterdam",
    "endLatLng": "52.3086, 4.76389",
    "distanceMeters": 8597118,
    "durationSeconds": 37786
  },
  {
    "startTime": "2022-05-20T21:47:21.000+05:30",
    "endTime": "2022-05-21T00:43:08.000+05:30",
    "startCity": "Amsterdam",
    "startLatLng": "52.3086, 4.76389",
    "endCity": "Reykjavik",
    "endLatLng": "63.985, -22.6056",
    "distanceMeters": 2037662,
    "durationSeconds": 10547
  },
  {
    "startTime": "2022-05-29T16:21:12.000+05:30",
    "endTime": "2022-05-29T19:18:58.000+05:30",
    "startCity": "Reykjavik",
    "startLatLng": "63.985, -22.6056",
    "endCity": "Amsterdam",
    "endLatLng": "52.3086, 4.76389",
    "distanceMeters": 2037662,
    "durationSeconds": 10666
  },
  {
    "startTime": "2022-10-18T15:27:23.000+05:30",
    "endTime": "2022-10-19T00:42:47.000+05:30",
    "startCity": "Amsterdam",
    "startLatLng": "52.3086, 4.76389",
    "endCity": "Mumbai",
    "endLatLng": "19.0887, 72.8679",
    "distanceMeters": 6859514,
    "durationSeconds": 33324
  },
  {
    "startTime": "2022-10-20T14:10:43.000+05:30",
    "endTime": "2022-10-20T16:27:03.000+05:30",
    "startCity": "Mumbai",
    "startLatLng": "19.0887, 72.8679",
    "endCity": "Ranchi",
    "endLatLng": "23.3143, 85.3217",
    "distanceMeters": 1373197,
    "durationSeconds": 8180
  },
  {
    "startTime": "2022-11-01T15:57:34.000+05:30",
    "endTime": "2022-11-01T18:41:03.000+05:30",
    "startCity": "Ranchi",
    "startLatLng": "23.3143, 85.3217",
    "endCity": "Mumbai",
    "endLatLng": "19.0887, 72.8679",
    "distanceMeters": 1373197,
    "durationSeconds": 9809
  },
  {
    "startTime": "2022-11-02T04:05:08.000+05:30",
    "endTime": "2022-11-02T13:23:45.000+05:30",
    "startCity": "Mumbai",
    "startLatLng": "19.0887, 72.8679",
    "endCity": "Amsterdam",
    "endLatLng": "52.3086, 4.76389",
    "distanceMeters": 6859514,
    "durationSeconds": 33517
  },
  {
    "startTime": "2022-11-28T21:15:07.000+05:30",
    "endTime": "2022-11-28T23:57:09.000+05:30",
    "startCity": "Amsterdam",
    "startLatLng": "52.3086, 4.76389",
    "endCity": "Faro",
    "endLatLng": "37.0144, -7.96591",
    "distanceMeters": 1969769,
    "durationSeconds": 9722
  },
  {
    "startTime": "2022-12-12T19:47:01.000+05:30",
    "endTime": "2022-12-12T22:25:50.000+05:30",
    "startCity": "Porto",
    "startLatLng": "41.2481, -8.68139",
    "endCity": "Amsterdam",
    "endLatLng": "52.3086, 4.76389",
    "distanceMeters": 1594973,
    "durationSeconds": 9529
  },
  {
    "startTime": "2023-03-06T19:57:46.000+05:30",
    "endTime": "2023-03-07T02:29:12.000+05:30",
    "startCity": "Amsterdam",
    "startLatLng": "52.3086, 4.76389",
    "endCity": "Doha",
    "endLatLng": "25.26059, 51.61377",
    "distanceMeters": 4924526,
    "durationSeconds": 23486
  },
  {
    "startTime": "2023-03-07T04:23:19.000+05:30",
    "endTime": "2023-03-07T08:39:23.000+05:30",
    "startCity": "Doha",
    "startLatLng": "25.26059, 51.61377",
    "endCity": "New Delhi",
    "endLatLng": "28.5665, 77.1031",
    "distanceMeters": 2548989,
    "durationSeconds": 15364
  },
  {
    "startTime": "2023-03-07T14:14:49.000+05:30",
    "endTime": "2023-03-07T16:32:32.000+05:30",
    "startCity": "New Delhi",
    "startLatLng": "28.5665, 77.1031",
    "endCity": "Ranchi",
    "endLatLng": "23.3143, 85.3217",
    "distanceMeters": 1007666,
    "durationSeconds": 8263
  },
  {
    "startTime": "2023-03-20T08:03:55.000+05:30",
    "endTime": "2023-03-20T10:35:44.000+05:30",
    "startCity": "Ranchi",
    "startLatLng": "23.3143, 85.3217",
    "endCity": "Bangalore",
    "endLatLng": "13.1979, 77.7063",
    "distanceMeters": 1381937,
    "durationSeconds": 9109
  },
  {
    "startTime": "2023-03-26T11:19:27.000+05:30",
    "endTime": "2023-03-26T13:47:19.000+05:30",
    "startCity": "Bangalore",
    "startLatLng": "13.1979, 77.7063",
    "endCity": "Port Blair",
    "endLatLng": "11.6412, 92.7297",
    "distanceMeters": 1640317,
    "durationSeconds": 8872
  },
  {
    "startTime": "2023-04-02T11:42:25.000+05:30",
    "endTime": "2023-04-02T14:02:20.000+05:30",
    "startCity": "Port Blair",
    "startLatLng": "11.6412, 92.7297",
    "endCity": "Kolkata",
    "endLatLng": "22.6547, 88.4467",
    "distanceMeters": 1306148,
    "durationSeconds": 8395
  },
  {
    "startTime": "2023-04-02T15:57:22.000+05:30",
    "endTime": "2023-04-02T17:24:07.000+05:30",
    "startCity": "Kolkata",
    "startLatLng": "22.6547, 88.4467",
    "endCity": "Ranchi",
    "endLatLng": "23.3143, 85.3217",
    "distanceMeters": 328189,
    "durationSeconds": 5205
  },
  {
    "startTime": "2023-04-12T16:38:26.000+05:30",
    "endTime": "2023-04-12T18:27:56.000+05:30",
    "startCity": "Ranchi",
    "startLatLng": "23.3143, 85.3217",
    "endCity": "New Delhi",
    "endLatLng": "28.5665, 77.1031",
    "distanceMeters": 1007666,
    "durationSeconds": 6570
  },
  {
    "startTime": "2023-04-13T06:55:40.000+05:30",
    "endTime": "2023-04-13T13:24:07.000+05:30",
    "startCity": "New Delhi",
    "startLatLng": "28.5665, 77.1031",
    "endCity": "Istanbul",
    "endLatLng": "41.27533, 28.752",
    "distanceMeters": 4564967,
    "durationSeconds": 23307
  },
  {
    "startTime": "2023-04-13T16:01:17.000+05:30",
    "endTime": "2023-04-13T21:02:26.000+05:30",
    "startCity": "Istanbul",
    "startLatLng": "41.27533, 28.752",
    "endCity": "Amsterdam",
    "endLatLng": "52.3086, 4.76389",
    "distanceMeters": 2183757,
    "durationSeconds": 18069
  },
  {
    "startTime": "2023-06-02T18:02:21.000+05:30",
    "endTime": "2023-06-03T05:33:49.000+05:30",
    "startCity": "Amsterdam",
    "startLatLng": "52.3086, 4.76389",
    "endCity": "San Francisco",
    "endLatLng": "37.618806, -122.375417",
    "distanceMeters": 8785558,
    "durationSeconds": 41488
  },
  {
    "startTime": "2023-08-01T03:14:15.000+05:30",
    "endTime": "2023-08-01T14:46:16.000+05:30",
    "startCity": "San Francisco",
    "startLatLng": "37.618806, -122.375417",
    "endCity": "Amsterdam",
    "endLatLng": "52.3086, 4.76389",
    "distanceMeters": 8785558,
    "durationSeconds": 41521
  },
  {
    "startTime": "2023-11-30T20:10:00.000+05:30",
    "endTime": "2023-12-01T01:04:51.000+05:30",
    "startCity": "Amsterdam",
    "startLatLng": "52.3086, 4.76389",
    "endCity": "Cairo",
    "endLatLng": "30.1219, 31.4056",
    "distanceMeters": 3287305,
    "durationSeconds": 17691
  },
  {
    "startTime": "2023-12-01T03:31:50.000+05:30",
    "endTime": "2023-12-01T09:21:57.000+05:30",
    "startCity": "Cairo",
    "startLatLng": "30.1219, 31.4056",
    "endCity": "New Delhi",
    "endLatLng": "28.5665, 77.1031",
    "distanceMeters": 4402923,
    "durationSeconds": 21007
  },
  {
    "startTime": "2023-12-01T14:34:39.000+05:30",
    "endTime": "2023-12-01T16:29:23.000+05:30",
    "startCity": "New Delhi",
    "startLatLng": "28.5665, 77.1031",
    "endCity": "Ranchi",
    "endLatLng": "23.3143, 85.3217",
    "distanceMeters": 1007666,
    "durationSeconds": 6884
  },
  {
    "startTime": "2023-12-29T14:39:50.000+05:30",
    "endTime": "2023-12-29T15:37:13.000+05:30",
    "startCity": "Ranchi",
    "startLatLng": "23.3143, 85.3217",
    "endCity": "Patna",
    "endLatLng": "25.5913, 85.088",
    "distanceMeters": 254293,
    "durationSeconds": 3443
  },
  {
    "startTime": "2024-02-10T08:43:18.000+05:30",
    "endTime": "2024-02-10T11:17:12.000+05:30",
    "startCity": "Ranchi",
    "startLatLng": "23.3143, 85.3217",
    "endCity": "Bangalore",
    "endLatLng": "13.1979, 77.7063",
    "distanceMeters": 1381937,
    "durationSeconds": 9234
  },
  {
    "startTime": "2024-02-13T01:47:04.000+05:30",
    "endTime": "2024-02-13T10:50:00.000+05:30",
    "startCity": "New Delhi",
    "startLatLng": "28.5665, 77.1031",
    "endCity": "Zurich",
    "endLatLng": "47.4647, 8.54917",
    "distanceMeters": 6147843,
    "durationSeconds": 32576
  },
  {
    "startTime": "2024-02-13T11:50:00.000+05:30",
    "endTime": "2024-02-13T13:34:32.000+05:30",
    "startCity": "Zurich",
    "startLatLng": "47.4647, 8.54917",
    "endCity": "Amsterdam",
    "endLatLng": "52.3086, 4.76389",
    "distanceMeters": 602833,
    "durationSeconds": 6272
  },
  {
    "startTime": "2024-03-03T14:35:44.000+05:30",
    "endTime": "2024-03-03T16:00:00.000+05:30",
    "startCity": "Amsterdam",
    "startLatLng": "52.3086, 4.76389",
    "endCity": "Zurich",
    "endLatLng": "47.4647, 8.54917",
    "distanceMeters": 602833,
    "durationSeconds": 5056
  },
  {
    "startTime": "2024-03-03T16:43:00.000+05:30",
    "endTime": "2024-03-04T00:06:00.000+05:30",
    "startCity": "Zurich",
    "startLatLng": "47.4647, 8.54917",
    "endCity": "New Delhi",
    "endLatLng": "28.5665, 77.1031",
    "distanceMeters": 6147843,
    "durationSeconds": 26580
  },
  {
    "startTime": "2024-03-04T06:24:15.000+05:30",
    "endTime": "2024-03-04T08:30:48.000+05:30",
    "startCity": "New Delhi",
    "startLatLng": "28.5665, 77.1031",
    "endCity": "Ranchi",
    "endLatLng": "23.3143, 85.3217",
    "distanceMeters": 1007666,
    "durationSeconds": 7593
  },
  {
    "startTime": "2024-03-15T16:27:38.000+05:30",
    "endTime": "2024-03-15T19:03:28.000+05:30",
    "startCity": "Ranchi",
    "startLatLng": "23.3143, 85.3217",
    "endCity": "Mumbai",
    "endLatLng": "19.0887, 72.8679",
    "distanceMeters": 1373197,
    "durationSeconds": 9350
  },
  {
    "startTime": "2024-03-21T09:27:20.000+05:30",
    "endTime": "2024-03-21T11:15:50.000+05:30",
    "startCity": "Mumbai",
    "startLatLng": "19.0887, 72.8679",
    "endCity": "Cochin",
    "endLatLng": "10.152, 76.4019",
    "distanceMeters": 1063812,
    "durationSeconds": 6510
  },
  {
    "startTime": "2024-03-25T16:09:40.000+05:30",
    "endTime": "2024-03-25T17:35:00.000+05:30",
    "startCity": "Cochin",
    "startLatLng": "10.152, 76.4019",
    "endCity": "Hyderabad",
    "endLatLng": "17.23132, 78.42986",
    "distanceMeters": 817061,
    "durationSeconds": 5120
  },
  {
    "startTime": "2024-03-25T18:30:00.000+05:30",
    "endTime": "2024-03-25T20:16:49.000+05:30",
    "startCity": "Hyderabad",
    "startLatLng": "17.23132, 78.42986",
    "endCity": "Ranchi",
    "endLatLng": "23.3143, 85.3217",
    "distanceMeters": 986672,
    "durationSeconds": 6409
  },
  {
    "startTime": "2024-04-05T17:38:35.000+05:30",
    "endTime": "2024-04-05T19:57:26.000+05:30",
    "startCity": "Ranchi",
    "startLatLng": "23.3143, 85.3217",
    "endCity": "New Delhi",
    "endLatLng": "28.5665, 77.1031",
    "distanceMeters": 1007666,
    "durationSeconds": 8331
  },
  {
    "startTime": "2024-04-08T15:06:38.000+05:30",
    "endTime": "2024-04-08T17:15:52.000+05:30",
    "startCity": "New Delhi",
    "startLatLng": "28.5665, 77.1031",
    "endCity": "Ranchi",
    "endLatLng": "23.3143, 85.3217",
    "distanceMeters": 1007666,
    "durationSeconds": 7754
  },
  {
    "startTime": "2024-05-31T13:01:32.000+05:30",
    "endTime": "2024-05-31T14:12:36.000+05:30",
    "startCity": "Ranchi",
    "startLatLng": "23.3143, 85.3217",
    "endCity": "Kolkata",
    "endLatLng": "22.6547, 88.4467",
    "distanceMeters": 328189,
    "durationSeconds": 4264
  },
  {
    "startTime": "2024-05-31T16:39:45.000+05:30",
    "endTime": "2024-05-31T19:06:18.000+05:30",
    "startCity": "Kolkata",
    "startLatLng": "22.6547, 88.4467",
    "endCity": "Ahmedabad",
    "endLatLng": "23.0772, 72.6347",
    "distanceMeters": 1619942,
    "durationSeconds": 8793
  },
  {
    "startTime": "2024-06-01T07:12:24.000+05:30",
    "endTime": "2024-06-01T09:39:08.000+05:30",
    "startCity": "Ahmedabad",
    "startLatLng": "23.0772, 72.6347",
    "endCity": "Srinagar",
    "endLatLng": "33.9871, 74.7742",
    "distanceMeters": 1230897,
    "durationSeconds": 8804
  },
  {
    "startTime": "2024-06-11T15:31:30.000+05:30",
    "endTime": "2024-06-11T18:24:24.000+05:30",
    "startCity": "Srinagar",
    "startLatLng": "33.9871, 74.7742",
    "endCity": "New Delhi",
    "endLatLng": "28.5665, 77.1031",
    "distanceMeters": 642033,
    "durationSeconds": 10374
  },
  {
    "startTime": "2024-06-12T12:56:31.000+05:30",
    "endTime": "2024-06-12T15:01:21.000+05:30",
    "startCity": "New Delhi",
    "startLatLng": "28.5665, 77.1031",
    "endCity": "Ranchi",
    "endLatLng": "23.3143, 85.3217",
    "distanceMeters": 1007666,
    "durationSeconds": 7490
  },
  {
    "startTime": "2024-07-15T08:29:18.000+05:30",
    "endTime": "2024-07-15T10:43:40.000+05:30",
    "startCity": "Ranchi",
    "startLatLng": "23.3143, 85.3217",
    "endCity": "Bangalore",
    "endLatLng": "13.1979, 77.7063",
    "distanceMeters": 1381937,
    "durationSeconds": 8062
  },
  {
    "startTime": "2024-07-28T17:32:56.000+05:30",
    "endTime": "2024-07-28T19:54:03.000+05:30",
    "startCity": "Bangalore",
    "startLatLng": "13.1979, 77.7063",
    "endCity": "Ranchi",
    "endLatLng": "23.3143, 85.3217",
    "distanceMeters": 1381937,
    "durationSeconds": 8467
  },
  {
    "startTime": "2024-09-07T10:55:50.000+05:30",
    "endTime": "2024-09-07T12:35:24.000+05:30",
    "startCity": "Ranchi",
    "startLatLng": "23.3143, 85.3217",
    "endCity": "Hyderabad",
    "endLatLng": "17.23132, 78.42986",
    "distanceMeters": 986672,
    "durationSeconds": 5974
  },
  {
    "startTime": "2024-09-15T18:51:41.000+05:30",
    "endTime": "2024-09-15T20:43:14.000+05:30",
    "startCity": "Hyderabad",
    "startLatLng": "17.23132, 78.42986",
    "endCity": "Ranchi",
    "endLatLng": "23.3143, 85.3217",
    "distanceMeters": 986672,
    "durationSeconds": 6693
  },
  {
    "startTime": "2024-12-21T14:35:10.000+05:30",
    "endTime": "2024-12-21T16:51:14.000+05:30",
    "startCity": "Ranchi",
    "startLatLng": "23.3143, 85.3217",
    "endCity": "New Delhi",
    "endLatLng": "28.5665, 77.1031",
    "distanceMeters": 1007666,
    "durationSeconds": 8164
  },
  {
    "startTime": "2024-12-23T07:35:05.000+05:30",
    "endTime": "2024-12-23T10:05:00.000+05:30",
    "startCity": "New Delhi",
    "startLatLng": "28.5665, 77.1031",
    "endCity": "Istanbul",
    "endLatLng": "41.27533, 28.752",
    "distanceMeters": 4564967,
    "durationSeconds": 8995
  },
  {
    "startTime": "2024-12-30T17:55:41.000+05:30",
    "endTime": "2024-12-30T18:54:52.000+05:30",
    "startCity": "Rome",
    "startLatLng": "41.8045, 12.2508",
    "endCity": "Palermo",
    "endLatLng": "38.176, 13.091",
    "distanceMeters": 409764,
    "durationSeconds": 3551
  },
  {
    "startTime": "2025-01-18T18:30:17.000+05:30",
    "endTime": "2025-01-18T20:15:44.000+05:30",
    "startCity": "Catania",
    "startLatLng": "37.4668, 15.0664",
    "endCity": "Milan",
    "endLatLng": "45.4451, 9.27674",
    "distanceMeters": 1009198,
    "durationSeconds": 6327
  },
  {
    "startTime": "2025-01-18T21:32:44.000+05:30",
    "endTime": "2025-01-18T23:28:50.000+05:30",
    "startCity": "Milan",
    "startLatLng": "45.4451, 9.27674",
    "endCity": "Amsterdam",
    "endLatLng": "52.3086, 4.76389",
    "distanceMeters": 831081,
    "durationSeconds": 6966
  },
  {
    "startTime": "2025-01-29T21:51:40.000+05:30",
    "endTime": "2025-01-30T10:24:39.000+05:30",
    "startCity": "Paris",
    "startLatLng": "48.7253, 2.35944",
    "endCity": "San Francisco",
    "endLatLng": "37.618806, -122.375417",
    "distanceMeters": 8977112,
    "durationSeconds": 45179
  },
  {
    "startTime": "2025-04-04T22:34:14.000+05:30",
    "endTime": "2025-04-05T14:34:35.000+05:30",
    "startCity": "San Francisco",
    "startLatLng": "37.61881, -122.37542",
    "endCity": "New Delhi",
    "endLatLng": "28.5665, 77.1031",
    "distanceMeters": 12380875,
    "durationSeconds": 57621
  },
  {
    "startTime": "2025-04-05T17:41:41.000+05:30",
    "endTime": "2025-04-05T19:51:27.000+05:30",
    "startCity": "New Delhi",
    "startLatLng": "28.5665, 77.1031",
    "endCity": "Ranchi",
    "endLatLng": "23.3143, 85.3217",
    "distanceMeters": 1007666,
    "durationSeconds": 7786
  },
  {
    "startTime": "2025-05-31T17:38:07.000+05:30",
    "endTime": "2025-05-31T19:47:03.000+05:30",
    "startCity": "Ranchi",
    "startLatLng": "23.3143, 85.3217",
    "endCity": "New Delhi",
    "endLatLng": "28.5665, 77.1031",
    "distanceMeters": 1007666,
    "durationSeconds": 7736
  },
  {
    "startTime": "2025-06-02T05:28:19.000+05:30",
    "endTime": "2025-06-02T10:47:20.000+05:30",
    "startCity": "New Delhi",
    "startLatLng": "28.5665, 77.1031",
    "endCity": "Hong Kong",
    "endLatLng": "22.3089, 113.915",
    "distanceMeters": 3746398,
    "durationSeconds": 19141
  },
  {
    "startTime": "2025-06-20T11:31:23.000+05:30",
    "endTime": "2025-06-20T15:14:35.000+05:30",
    "startCity": "Beijing",
    "startLatLng": "39.5, 116.4",
    "endCity": "Hong Kong",
    "endLatLng": "22.3089, 113.915",
    "distanceMeters": 1925981,
    "durationSeconds": 13392
  },
  {
    "startTime": "2025-06-21T12:58:22.000+05:30",
    "endTime": "2025-06-21T18:57:45.000+05:30",
    "startCity": "Hong Kong",
    "startLatLng": "22.3089, 113.915",
    "endCity": "New Delhi",
    "endLatLng": "28.5665, 77.1031",
    "distanceMeters": 3746398,
    "durationSeconds": 21563
  },
  {
    "startTime": "2025-06-22T17:57:02.000+05:30",
    "endTime": "2025-06-22T20:04:53.000+05:30",
    "startCity": "New Delhi",
    "startLatLng": "28.5665, 77.1031",
    "endCity": "Ranchi",
    "endLatLng": "23.3143, 85.3217",
    "distanceMeters": 1007666,
    "durationSeconds": 7671
  },
  {
    "startTime": "2025-06-29T20:46:31.000+05:30",
    "endTime": "2025-06-29T22:23:37.000+05:30",
    "startCity": "Ranchi",
    "startLatLng": "23.3143, 85.3217",
    "endCity": "Kolkata",
    "endLatLng": "22.6547, 88.4467",
    "distanceMeters": 328189,
    "durationSeconds": 5826
  },
  {
    "startTime": "2025-06-30T02:28:18.000+05:30",
    "endTime": "2025-06-30T06:54:52.000+05:30",
    "startCity": "Kolkata",
    "startLatLng": "22.6547, 88.4467",
    "endCity": "Singapore",
    "endLatLng": "1.35019, 103.994",
    "distanceMeters": 2903966,
    "durationSeconds": 15994
  },
  {
    "startTime": "2025-08-02T03:03:58.000+05:30",
    "endTime": "2025-08-02T07:08:06.000+05:30",
    "startCity": "Kuala Lumpur",
    "startLatLng": "2.74558, 101.71",
    "endCity": "Chennai",
    "endLatLng": "12.99001, 80.1693",
    "distanceMeters": 2628689,
    "durationSeconds": 14648
  },
  {
    "startTime": "2025-08-02T16:44:27.000+05:30",
    "endTime": "2025-08-02T19:37:33.000+05:30",
    "startCity": "Chennai",
    "startLatLng": "12.99001, 80.1693",
    "endCity": "Ranchi",
    "endLatLng": "23.3143, 85.3217",
    "distanceMeters": 1270127,
    "durationSeconds": 10386
  },
  {
    "startTime": "2025-10-29T19:20:40.000+05:30",
    "endTime": "2025-10-29T21:33:40.000+05:30",
    "startCity": "Ranchi",
    "startLatLng": "23.3143, 85.3217",
    "endCity": "Mumbai",
    "endLatLng": "19.0887, 72.8679",
    "distanceMeters": 1373197,
    "durationSeconds": 7980
  },
  {
    "startTime": "2025-10-30T15:28:01.000+05:30",
    "endTime": "2025-10-31T01:30:27.000+05:30",
    "startCity": "Mumbai",
    "startLatLng": "19.0887, 72.8679",
    "endCity": "London",
    "endLatLng": "51.4706, -0.46194",
    "distanceMeters": 7213041,
    "durationSeconds": 36146
  },
  {
    "startTime": "2025-11-15T14:42:47.000+05:30",
    "endTime": "2025-11-15T17:23:39.000+05:30",
    "startCity": "London",
    "startLatLng": "51.8747, -0.36833",
    "endCity": "Warsaw",
    "endLatLng": "52.1657, 20.9671",
    "distanceMeters": 1455019,
    "durationSeconds": 9652
  },
  {
    "startTime": "2026-03-08T16:22:38.000+05:30",
    "endTime": "2026-03-09T05:44:40.000+05:30",
    "startCity": "Amsterdam",
    "startLatLng": "52.3086, 4.76389",
    "endCity": "Mumbai",
    "endLatLng": "19.0887, 72.8679",
    "distanceMeters": 6859514,
    "durationSeconds": 48122
  },
  {
    "startTime": "2026-03-09T16:47:12.000+05:30",
    "endTime": "2026-03-09T19:14:41.000+05:30",
    "startCity": "Mumbai",
    "startLatLng": "19.0887, 72.8679",
    "endCity": "Ranchi",
    "endLatLng": "23.3143, 85.3217",
    "distanceMeters": 1373197,
    "durationSeconds": 8849
  }
]