[
  {
    "startTime": "2012-03-08T08:45:00.000+05:30",
    "endTime": "2012-03-08T11:00:00.000+05:30",
    "startCity": "Ranchi",
    "startLatLng": "23.3143, 85.3217",
    "endCity": "Mumbai",
    "endLatLng": "19.0887, 72.8679",
    "distanceMeters": 1373197.4216461384,
    "durationSeconds": 8100.0
  },
  {
    "startTime": "2012-03-08T14:00:00.000+05:30",
    "endTime": "2012-03-08T15:40:00.000+05:30",
    "startCity": "Mumbai",
    "startLatLng": "19.0887, 72.8679",
    "endCity": "Bangalore",
    "endLatLng": "13.1979, 77.7063",
    "distanceMeters": 834162.5830411243,
    "durationSeconds": 6000.0
  },
  {
    "startTime": "2012-04-22T13:25:00.000+05:30",
    "endTime": "2012-04-22T15:15:00.000+05:30",
    "startCity": "Kolkata",
    "startLatLng": "22.6547, 88.4467",
    "endCity": "Hyderabad",
    "endLatLng": "17.23132, 78.42986",
    "distanceMeters": 1207672.2299172506,
    "durationSeconds": 6600.0
  },
  {
    "startTime": "2012-06-17T15:00:00.000+05:30",
    "endTime": "2012-06-17T16:15:00.000+05:30",
    "startCity": "Hyderabad",
    "startLatLng": "17.23132, 78.42986",
    "endCity": "Mumbai",
    "endLatLng": "19.0887, 72.8679",
    "distanceMeters": 622838.979808215,
    "durationSeconds": 4500.0
  },
  {
    "startTime": "2012-10-19T05:38:24.000+05:30",
    "endTime": "2012-10-19T16:21:23.000+05:30",
    "startCity": "Mumbai",
    "startLatLng": "19.0887, 72.8679",
    "endCity": "Ranchi",
    "endLatLng": "23.3143, 85.3217",
    "distanceMeters": 1373197.4216461384,
    "durationSeconds": 38579.0
  },
  {
    "startTime": "2012-10-29T07:36:24.000+05:30",
    "endTime": "2012-10-30T13:09:09.000+05:30",
    "startCity": "Ranchi",
    "startLatLng": "23.3143, 85.3217",
    "endCity": "Mumbai",
    "endLatLng": "19.0887, 72.8679",
    "distanceMeters": 1373197.4216461384,
    "durationSeconds": 106365.0
  },
  {
    "startTime": "2013-02-24T20:05:00.000+05:30",
    "endTime": "2013-02-24T21:40:00.000+05:30",
    "startCity": "Mumbai",
    "startLatLng": "19.0887, 72.8679",
    "endCity": "Bangalore",
    "endLatLng": "13.1979, 77.7063",
    "distanceMeters": 834162.5830411243,
    "durationSeconds": 5700.0
  },
  {
    "startTime": "2013-02-25T21:30:00.000+05:30",
    "endTime": "2013-02-25T23:10:00.000+05:30",
    "startCity": "Bangalore",
    "startLatLng": "13.1979, 77.7063",
    "endCity": "Mumbai",
    "endLatLng": "19.0887, 72.8679",
    "distanceMeters": 834162.5830411243,
    "durationSeconds": 6000.0
  },
  {
    "startTime": "2013-03-21T09:53:49.000+05:30",
    "endTime": "2013-03-21T14:45:00.000+05:30",
    "startCity": "Mumbai",
    "startLatLng": "19.0887, 72.8679",
    "endCity": "Ranchi",
    "endLatLng": "23.3143, 85.3217",
    "distanceMeters": 1373197.4216461384,
    "durationSeconds": 17471.0
  },
  {
    "startTime": "2013-04-02T18:34:11.000+05:30",
    "endTime": "2013-04-03T11:26:10.000+05:30",
    "startCity": "Ranchi",
    "startLatLng": "23.3143, 85.3217",
    "endCity": "Mumbai",
    "endLatLng": "19.0887, 72.8679",
    "distanceMeters": 1373197.4216461384,
    "durationSeconds": 60719.0
  },
  {
    "startTime": "2013-09-02T09:24:05.000+05:30",
    "endTime": "2013-09-02T21:54:17.000+05:30",
    "startCity": "Mumbai",
    "startLatLng": "19.0887, 72.8679",
    "endCity": "Kanpur",
    "endLatLng": "26.4043, 80.4101",
    "distanceMeters": 1121843.0661107735,
    "durationSeconds": 45012.0
  },
  {
    "startTime": "2013-09-04T12:43:00.000+05:30",
    "endTime": "2013-09-06T01:32:10.000+05:30",
    "startCity": "Lucknow",
    "startLatLng": "26.7606, 80.8893",
    "endCity": "Mumbai",
    "endLatLng": "19.0887, 72.8679",
    "distanceMeters": 1183583.2987144068,
    "durationSeconds": 132550.0
  },
  {
    "startTime": "2013-10-09T10:14:08.000+05:30",
    "endTime": "2013-10-09T15:27:46.000+05:30",
    "startCity": "Mumbai",
    "startLatLng": "19.0887, 72.8679",
    "endCity": "Allahabad",
    "endLatLng": "25.4401, 81.7339",
    "distanceMeters": 1153103.9728168442,
    "durationSeconds": 18818.0
  },
  {
    "startTime": "2013-10-11T10:35:55.000+05:30",
    "endTime": "2013-10-11T12:50:40.000+05:30",
    "startCity": "Allahabad",
    "startLatLng": "25.4401, 81.7339",
    "endCity": "Mumbai",
    "endLatLng": "19.0887, 72.8679",
    "distanceMeters": 1153103.9728168442,
    "durationSeconds": 8085.0
  },
  {
    "startTime": "2013-10-12T11:06:43.000+05:30",
    "endTime": "2013-10-12T13:24:24.000+05:30",
    "startCity": "Mumbai",
    "startLatLng": "19.0887, 72.8679",
    "endCity": "Patna",
    "endLatLng": "25.5913, 85.088",
    "distanceMeters": 1448791.6664322761,
    "durationSeconds": 8261.0
  },
  {
    "startTime": "2013-10-12T14:17:59.000+05:30",
    "endTime": "2013-10-12T15:16:31.000+05:30",
    "startCity": "Patna",
    "startLatLng": "25.5913, 85.088",
    "endCity": "Ranchi",
    "endLatLng": "23.3143, 85.3217",
    "distanceMeters": 254293.2594799335,
    "durationSeconds": 3512.0
  },
  {
    "startTime": "2013-10-21T18:11:21.000+05:30",
    "endTime": "2013-10-21T19:06:58.000+05:30",
    "startCity": "Ranchi",
    "startLatLng": "23.3143, 85.3217",
    "endCity": "Mumbai",
    "endLatLng": "19.0887, 72.8679",
    "distanceMeters": 1373197.4216461384,
    "durationSeconds": 3337.0
  },
  {
    "startTime": "2013-11-30T08:23:52.000+05:30",
    "endTime": "2013-11-30T18:27:57.000+05:30",
    "startCity": "Mumbai",
    "startLatLng": "19.0887, 72.8679",
    "endCity": "Guwahati",
    "endLatLng": "26.1061, 91.5859",
    "distanceMeters": 2071067.896080654,
    "durationSeconds": 36245.0
  },
  {
    "startTime": "2014-02-22T07:40:20.000+05:30",
    "endTime": "2014-02-22T11:54:04.000+05:30",
    "startCity": "Mumbai",
    "startLatLng": "19.0887, 72.8679",
    "endCity": "Bangalore",
    "endLatLng": "13.1979, 77.7063",
    "distanceMeters": 834162.5830411243,
    "durationSeconds": 15224.0
  },
  {
    "startTime": "2014-02-24T23:07:47.000+05:30",
    "endTime": "2014-02-24T23:46:17.000+05:30",
    "startCity": "Bangalore",
    "startLatLng": "13.1979, 77.7063",
    "endCity": "Mumbai",
    "endLatLng": "19.0887, 72.8679",
    "distanceMeters": 834162.5830411243,
    "durationSeconds": 2310.0
  },
  {
    "startTime": "2014-03-01T11:32:25.000+05:30",
    "endTime": "2014-03-01T22:06:52.000+05:30",
    "startCity": "Mumbai",
    "startLatLng": "19.0887, 72.8679",
    "endCity": "Srinagar",
    "endLatLng": "33.9871, 74.7742",
    "distanceMeters": 1667338.5076297224,
    "durationSeconds": 38067.0
  },
  {
    "startTime": "2014-03-17T14:45:00.000+05:30",
    "endTime": "2014-03-17T18:50:00.000+05:30",
    "startCity": "Amritsar",
    "startLatLng": "31.7096, 74.7973",
    "endCity": "Mumbai",
    "endLatLng": "19.0887, 72.8679",
    "distanceMeters": 1416608.333273979,
    "durationSeconds": 14700.0
  },
  {
    "startTime": "2014-06-22T11:50:00.000+05:30",
    "endTime": "2014-06-22T13:45:00.000+05:30",
    "startCity": "Mumbai",
    "startLatLng": "19.0887, 72.8679",
    "endCity": "Chennai",
    "endLatLng": "12.99001, 80.1693",
    "distanceMeters": 1033404.583717954,
    "durationSeconds": 6900.0
  },
  {
    "startTime": "2014-06-22T14:30:00.000+05:30",
    "endTime": "2014-06-22T15:50:00.000+05:30",
    "startCity": "Chennai",
    "startLatLng": "12.99001, 80.1693",
    "endCity": "Madurai",
    "endLatLng": "9.83451, 78.0934",
    "distanceMeters": 417486.6975505542,
    "durationSeconds": 4800.0
  },
  {
    "startTime": "2014-07-01T07:33:53.000+05:30",
    "endTime": "2014-07-01T10:10:00.000+05:30",
    "startCity": "Chennai",
    "startLatLng": "12.99001, 80.1693",
    "endCity": "Ranchi",
    "endLatLng": "23.3143, 85.3217",
    "distanceMeters": 1270127.0131818077,
    "durationSeconds": 9367.0
  },
  {
    "startTime": "2014-07-01T11:50:00.000+05:30",
    "endTime": "2014-07-01T12:55:00.000+05:30",
    "startCity": "Chennai",
    "startLatLng": "12.99001, 80.1693",
    "endCity": "Ranchi",
    "endLatLng": "23.3143, 85.3217",
    "distanceMeters": 1270127.0131818077,
    "durationSeconds": 3900.0
  },
  {
    "startTime": "2014-07-14T15:19:30.000+05:30",
    "endTime": "2014-07-14T17:10:00.000+05:30",
    "startCity": "Ranchi",
    "startLatLng": "23.3143, 85.3217",
    "endCity": "New Delhi",
    "endLatLng": "28.5665, 77.1031",
    "distanceMeters": 1007666.353305645,
    "durationSeconds": 6630.0
  },
  {
    "startTime": "2014-07-15T09:46:16.000+05:30",
    "endTime": "2014-07-15T10:45:00.000+05:30",
    "startCity": "New Delhi",
    "startLatLng": "28.5665, 77.1031",
    "endCity": "Chandigarh",
    "endLatLng": "30.6735, 76.7885",
    "distanceMeters": 236252.67891213077,
    "durationSeconds": 3524.0
  },
  {
    "startTime": "2014-07-31T14:45:00.000+05:30",
    "endTime": "2014-07-31T19:05:00.000+05:30",
    "startCity": "Srinagar",
    "startLatLng": "33.9871, 74.7742",
    "endCity": "Mumbai",
    "endLatLng": "19.0887, 72.8679",
    "distanceMeters": 1667338.5076297224,
    "durationSeconds": 15600.0
  },
  {
    "startTime": "2015-01-24T07:08:39.000+05:30",
    "endTime": "2015-01-24T12:07:13.000+05:30",
    "startCity": "Mumbai",
    "startLatLng": "19.0887, 72.8679",
    "endCity": "Ranchi",
    "endLatLng": "23.3143, 85.3217",
    "distanceMeters": 1373197.4216461384,
    "durationSeconds": 17914.0
  },
  {
    "startTime": "2015-02-03T13:02:44.000+05:30",
    "endTime": "2015-02-03T19:18:08.000+05:30",
    "startCity": "Ranchi",
    "startLatLng": "23.3143, 85.3217",
    "endCity": "Mumbai",
    "endLatLng": "19.0887, 72.8679",
    "distanceMeters": 1373197.4216461384,
    "durationSeconds": 22524.0
  },
  {
    "startTime": "2015-02-18T05:37:10.000+05:30",
    "endTime": "2015-02-18T08:32:12.000+05:30",
    "startCity": "Mumbai",
    "startLatLng": "19.0887, 72.8679",
    "endCity": "New Delhi",
    "endLatLng": "28.5665, 77.1031",
    "distanceMeters": 1138229.7859875811,
    "durationSeconds": 10502.0
  },
  {
    "startTime": "2015-02-18T09:46:43.000+05:30",
    "endTime": "2015-02-18T11:25:00.000+05:30",
    "startCity": "New Delhi",
    "startLatLng": "28.5665, 77.1031",
    "endCity": "Srinagar",
    "endLatLng": "33.9871, 74.7742",
    "distanceMeters": 642032.7569391722,
    "durationSeconds": 5897.0
  },
  {
    "startTime": "2015-03-03T15:22:28.000+05:30",
    "endTime": "2015-03-03T18:03:44.000+05:30",
    "startCity": "Srinagar",
    "startLatLng": "33.9871, 74.7742",
    "endCity": "Mumbai",
    "endLatLng": "19.0887, 72.8679",
    "distanceMeters": 1667338.5076297224,
    "durationSeconds": 9676.0
  },
  {
    "startTime": "2015-05-01T05:51:48.000+05:30",
    "endTime": "2015-05-01T10:55:43.000+05:30",
    "startCity": "Mumbai",
    "startLatLng": "19.0887, 72.8679",
    "endCity": "Port Blair",
    "endLatLng": "11.6412, 92.7297",
    "distanceMeters": 2282515.787476126,
    "durationSeconds": 18235.0
  },
  {
    "startTime": "2015-05-10T13:50:00.000+05:30",
    "endTime": "2015-05-10T16:07:49.000+05:30",
    "startCity": "Port Blair",
    "startLatLng": "11.6412, 92.7297",
    "endCity": "Chennai",
    "endLatLng": "12.99001, 80.1693",
    "distanceMeters": 1372570.1945391104,
    "durationSeconds": 8269.0
  },
  {
    "startTime": "2015-05-10T19:19:00.000+05:30",
    "endTime": "2015-05-10T21:15:00.000+05:30",
    "startCity": "Chennai",
    "startLatLng": "12.99001, 80.1693",
    "endCity": "Bangalore",
    "endLatLng": "13.1979, 77.7063",
    "distanceMeters": 267750.88653658854,
    "durationSeconds": 6960.0
  },
  {
    "startTime": "2015-05-10T22:06:00.000+05:30",
    "endTime": "2015-05-10T23:52:58.000+05:30",
    "startCity": "Bangalore",
    "startLatLng": "13.1979, 77.7063",
    "endCity": "Mumbai",
    "endLatLng": "19.0887, 72.8679",
    "distanceMeters": 834162.5830411243,
    "durationSeconds": 6418.0
  },
  {
    "startTime": "2015-11-05T11:15:00.000+05:30",
    "endTime": "2015-11-05T13:40:00.000+05:30",
    "startCity": "Mumbai",
    "startLatLng": "19.0887, 72.8679",
    "endCity": "Ranchi",
    "endLatLng": "23.3143, 85.3217",
    "distanceMeters": 1373197.4216461384,
    "durationSeconds": 8700.0
  },
  {
    "startTime": "2015-11-05T14:10:00.000+05:30",
    "endTime": "2015-11-05T14:55:00.000+05:30",
    "startCity": "Mumbai",
    "startLatLng": "19.0887, 72.8679",
    "endCity": "Ranchi",
    "endLatLng": "23.3143, 85.3217",
    "distanceMeters": 1373197.4216461384,
    "durationSeconds": 2700.0
  },
  {
    "startTime": "2015-11-19T17:21:28.000+05:30",
    "endTime": "2015-11-19T19:22:21.000+05:30",
    "startCity": "Ranchi",
    "startLatLng": "23.3143, 85.3217",
    "endCity": "Mumbai",
    "endLatLng": "19.0887, 72.8679",
    "distanceMeters": 1373197.4216461384,
    "durationSeconds": 7253.0
  },
  {
    "startTime": "2015-11-29T05:40:41.000+05:30",
    "endTime": "2015-11-29T08:37:50.000+05:30",
    "startCity": "Mumbai",
    "startLatLng": "19.0887, 72.8679",
    "endCity": "Bangalore",
    "endLatLng": "13.1979, 77.7063",
    "distanceMeters": 834162.5830411243,
    "durationSeconds": 10629.0
  },
  {
    "startTime": "2016-04-18T22:17:05.000+05:30",
    "endTime": "2016-04-19T01:09:02.000+05:30",
    "startCity": "Bangalore",
    "startLatLng": "13.1979, 77.7063",
    "endCity": "Chennai",
    "endLatLng": "12.99001, 80.1693",
    "distanceMeters": 267750.88653658854,
    "durationSeconds": 10317.0
  },
  {
    "startTime": "2016-04-20T12:36:14.000+05:30",
    "endTime": "2016-04-20T14:05:58.000+05:30",
    "startCity": "Chennai",
    "startLatLng": "12.99001, 80.1693",
    "endCity": "Bangalore",
    "endLatLng": "13.1979, 77.7063",
    "distanceMeters": 267750.88653658854,
    "durationSeconds": 5384.0
  },
  {
    "startTime": "2016-05-02T20:57:09.000+05:30",
    "endTime": "2016-05-03T03:04:01.000+05:30",
    "startCity": "Chennai",
    "startLatLng": "12.99001, 80.1693",
    "endCity": "Abu Dhabi",
    "endLatLng": "24.433, 54.6511",
    "distanceMeters": 2965943.8210548325,
    "durationSeconds": 22012.0
  },
  {
    "startTime": "2016-05-03T03:50:10.000+05:30",
    "endTime": "2016-05-03T13:32:27.000+05:30",
    "startCity": "Abu Dhabi",
    "startLatLng": "24.433, 54.6511",
    "endCity": "Dublin",
    "endLatLng": "53.4213, -6.27007",
    "distanceMeters": 5940780.474659625,
    "durationSeconds": 34937.0
  },
  {
    "startTime": "2016-05-03T16:30:55.000+05:30",
    "endTime": "2016-05-04T05:07:04.000+05:30",
    "startCity": "Dublin",
    "startLatLng": "53.4213, -6.27007",
    "endCity": "San Francisco",
    "endLatLng": "37.61881, -122.37542",
    "distanceMeters": 8183049.4152961485,
    "durationSeconds": 45369.0
  },
  {
    "startTime": "2016-05-09T21:29:06.000+05:30",
    "endTime": "2016-05-10T13:21:15.000+05:30",
    "startCity": "San Francisco",
    "startLatLng": "37.61881, -122.37542",
    "endCity": "Abu Dhabi",
    "endLatLng": "24.433, 54.6511",
    "distanceMeters": 13108239.93171906,
    "durationSeconds": 57129.0
  },
  {
    "startTime": "2016-05-10T15:08:57.000+05:30",
    "endTime": "2016-05-10T19:14:38.000+05:30",
    "startCity": "Abu Dhabi",
    "startLatLng": "24.433, 54.6511",
    "endCity": "Bangalore",
    "endLatLng": "13.1979, 77.7063",
    "distanceMeters": 2723103.2555243094,
    "durationSeconds": 14741.0
  },
  {
    "startTime": "2016-06-13T16:43:28.000+05:30",
    "endTime": "2016-06-13T20:31:17.000+05:30",
    "startCity": "Bangalore",
    "startLatLng": "13.1979, 77.7063",
    "endCity": "Muscat",
    "endLatLng": "23.5933, 58.2844",
    "distanceMeters": 2348652.5669917637,
    "durationSeconds": 13669.0
  },
  {
    "startTime": "2016-06-14T01:23:45.000+05:30",
    "endTime": "2016-06-14T10:57:30.000+05:30",
    "startCity": "Muscat",
    "startLatLng": "23.5933, 58.2844",
    "endCity": "Amsterdam",
    "endLatLng": "52.3086, 4.76389",
    "distanceMeters": 5500900.236017846,
    "durationSeconds": 34425.0
  },
  {
    "startTime": "2016-09-04T21:42:05.000+05:30",
    "endTime": "2016-09-05T00:31:31.000+05:30",
    "startCity": "Amsterdam",
    "startLatLng": "52.3086, 4.76389",
    "endCity": "Dubrovnik",
    "endLatLng": "42.5614, 18.2682",
    "distanceMeters": 1480697.8639921343,
    "durationSeconds": 10166.0
  },
  {
    "startTime": "2016-11-30T00:18:52.000+05:30",
    "endTime": "2016-11-30T03:56:08.000+05:30",
    "startCity": "Athens",
    "startLatLng": "37.9364, 23.9445",
    "endCity": "Amsterdam",
    "endLatLng": "52.3086, 4.76389",
    "distanceMeters": 2181747.501362744,
    "durationSeconds": 13036.0
  },
  {
    "startTime": "2016-11-30T21:45:55.000+05:30",
    "endTime": "2016-11-30T23:15:29.000+05:30",
    "startCity": "Amsterdam",
    "startLatLng": "52.3086, 4.76389",
    "endCity": "Frankfurt am Main",
    "endLatLng": "50.0264, 8.54313",
    "distanceMeters": 365741.17150924116,
    "durationSeconds": 5374.0
  },
  {
    "startTime": "2016-12-01T01:24:15.000+05:30",
    "endTime": "2016-12-01T09:46:08.000+05:30",
    "startCity": "Frankfurt am Main",
    "startLatLng": "50.0264, 8.54313",
    "endCity": "New Delhi",
    "endLatLng": "28.5665, 77.1031",
    "distanceMeters": 6122631.49497524,
    "durationSeconds": 30113.0
  },
  {
    "startTime": "2017-01-29T13:29:52.000+05:30",
    "endTime": "2017-01-29T15:58:40.000+05:30",
    "startCity": "Ranchi",
    "startLatLng": "23.3143, 85.3217",
    "endCity": "Kolkata",
    "endLatLng": "22.6547, 88.4467",
    "distanceMeters": 328189.28690942837,
    "durationSeconds": 8928.0
  },
  {
    "startTime": "2017-02-05T11:26:14.000+05:30",
    "endTime": "2017-02-05T12:46:35.000+05:30",
    "startCity": "Kolkata",
    "startLatLng": "22.6547, 88.4467",
    "endCity": "Ranchi",
    "endLatLng": "23.3143, 85.3217",
    "distanceMeters": 328189.28690942837,
    "durationSeconds": 4821.0
  },
  {
    "startTime": "2017-03-16T13:12:24.000+05:30",
    "endTime": "2017-03-16T14:20:20.000+05:30",
    "startCity": "Ranchi",
    "startLatLng": "23.3143, 85.3217",
    "endCity": "Kolkata",
    "endLatLng": "22.6547, 88.4467",
    "distanceMeters": 328189.28690942837,
    "durationSeconds": 4076.0
  },
  {
    "startTime": "2017-03-18T12:49:21.000+05:30",
    "endTime": "2017-03-18T13:16:47.000+05:30",
    "startCity": "Kolkata",
    "startLatLng": "22.6547, 88.4467",
    "endCity": "Ranchi",
    "endLatLng": "23.3143, 85.3217",
    "distanceMeters": 328189.28690942837,
    "durationSeconds": 1646.0
  },
  {
    "startTime": "2017-04-02T16:41:16.000+05:30",
    "endTime": "2017-04-02T19:11:07.000+05:30",
    "startCity": "Ranchi",
    "startLatLng": "23.3143, 85.3217",
    "endCity": "Mumbai",
    "endLatLng": "19.0887, 72.8679",
    "distanceMeters": 1373197.4216461384,
    "durationSeconds": 8991.0
  },
  {
    "startTime": "2017-04-03T02:32:54.000+05:30",
    "endTime": "2017-04-03T12:49:27.000+05:30",
    "startCity": "Mumbai",
    "startLatLng": "19.0887, 72.8679",
    "endCity": "Amsterdam",
    "endLatLng": "52.3086, 4.76389",
    "distanceMeters": 6859514.369532459,
    "durationSeconds": 36993.0
  },
  {
    "startTime": "2017-04-06T14:30:28.000+05:30",
    "endTime": "2017-04-07T00:08:13.000+05:30",
    "startCity": "Amsterdam",
    "startLatLng": "52.3086, 4.76389",
    "endCity": "New Delhi",
    "endLatLng": "28.5665, 77.1031",
    "distanceMeters": 6363454.04474202,
    "durationSeconds": 34665.0
  },
  {
    "startTime": "2017-04-11T10:47:08.000+05:30",
    "endTime": "2017-04-11T13:29:51.000+05:30",
    "startCity": "New Delhi",
    "startLatLng": "28.5665, 77.1031",
    "endCity": "Dibrugarh",
    "endLatLng": "27.4839, 95.0169",
    "distanceMeters": 1760831.1311811893,
    "durationSeconds": 9763.0
  },
  {
    "startTime": "2017-04-27T12:34:22.000+05:30",
    "endTime": "2017-04-27T14:05:30.000+05:30",
    "startCity": "Patna",
    "startLatLng": "25.5913, 85.088",
    "endCity": "Ranchi",
    "endLatLng": "23.3143, 85.3217",
    "distanceMeters": 254293.2594799335,
    "durationSeconds": 5468.0
  },
  {
    "startTime": "2017-05-08T15:03:06.000+05:30",
    "endTime": "2017-05-08T18:12:22.000+05:30",
    "startCity": "Ranchi",
    "startLatLng": "23.3143, 85.3217",
    "endCity": "Mumbai",
    "endLatLng": "19.0887, 72.8679",
    "distanceMeters": 1373197.4216461384,
    "durationSeconds": 11356.0
  },
  {
    "startTime": "2017-05-15T22:11:11.000+05:30",
    "endTime": "2017-05-16T01:00:37.000+05:30",
    "startCity": "Mumbai",
    "startLatLng": "19.0887, 72.8679",
    "endCity": "New Delhi",
    "endLatLng": "28.5665, 77.1031",
    "distanceMeters": 1138229.7859875811,
    "durationSeconds": 10166.0
  },
  {
    "startTime": "2017-05-16T15:58:02.000+05:30",
    "endTime": "2017-05-16T17:11:18.000+05:30",
    "startCity": "New Delhi",
    "startLatLng": "28.5665, 77.1031",
    "endCity": "Dehradun",
    "endLatLng": "30.1897, 78.1803",
    "distanceMeters": 208494.64161336693,
    "durationSeconds": 4396.0
  },
  {
    "startTime": "2017-05-22T12:04:05.000+05:30",
    "endTime": "2017-05-22T14:00:23.000+05:30",
    "startCity": "New Delhi",
    "startLatLng": "28.5665, 77.1031",
    "endCity": "Ranchi",
    "endLatLng": "23.3143, 85.3217",
    "distanceMeters": 1007666.353305645,
    "durationSeconds": 6978.0
  },
  {
    "startTime": "2017-05-24T00:08:59.000+05:30",
    "endTime": "2017-05-24T02:14:26.000+05:30",
    "startCity": "Kolkata",
    "startLatLng": "22.6547, 88.4467",
    "endCity": "Ranchi",
    "endLatLng": "23.3143, 85.3217",
    "distanceMeters": 328189.28690942837,
    "durationSeconds": 7527.0
  },
  {
    "startTime": "2017-05-31T19:45:41.000+05:30",
    "endTime": "2017-05-31T22:15:25.000+05:30",
    "startCity": "Ranchi",
    "startLatLng": "23.3143, 85.3217",
    "endCity": "New Delhi",
    "endLatLng": "28.5665, 77.1031",
    "distanceMeters": 1007666.353305645,
    "durationSeconds": 8984.0
  },
  {
    "startTime": "2017-06-01T01:09:55.000+05:30",
    "endTime": "2017-06-01T13:02:48.000+05:30",
    "startCity": "New Delhi",
    "startLatLng": "28.5665, 77.1031",
    "endCity": "Amsterdam",
    "endLatLng": "52.3086, 4.76389",
    "distanceMeters": 6363454.04474202,
    "durationSeconds": 42773.0
  },
  {
    "startTime": "2017-11-26T20:09:13.000+05:30",
    "endTime": "2017-11-26T22:58:27.000+05:30",
    "startCity": "Eindhoven",
    "startLatLng": "51.4501, 5.37453",
    "endCity": "Sevilla",
    "endLatLng": "37.418, -5.89311",
    "distanceMeters": 1793895.1209300845,
    "durationSeconds": 10154.0
  },
  {
    "startTime": "2017-12-03T13:57:10.000+05:30",
    "endTime": "2017-12-03T15:15:29.000+05:30",
    "startCity": "Barcelona",
    "startLatLng": "41.2971, 2.07846",
    "endCity": "Amsterdam",
    "endLatLng": "52.3086, 4.76389",
    "distanceMeters": 1241136.1348634881,
    "durationSeconds": 4699.0
  },
  {
    "startTime": "2018-04-01T10:49:32.000+05:30",
    "endTime": "2018-04-01T12:20:41.000+05:30",
    "startCity": "Amsterdam",
    "startLatLng": "52.3086, 4.76389",
    "endCity": "Salzburg",
    "endLatLng": "47.7933, 13.0043",
    "distanceMeters": 772625.4790108607,
    "durationSeconds": 5469.0
  },
  {
    "startTime": "2018-11-02T18:03:13.000+05:30",
    "endTime": "2018-11-02T21:00:00.000+05:30",
    "startCity": "Amsterdam",
    "startLatLng": "52.3086, 4.76389",
    "endCity": "Istanbul",
    "endLatLng": "40.8986, 29.3092",
    "distanceMeters": 2246487.75933552,
    "durationSeconds": 10607.0
  },
  {
    "startTime": "2018-11-02T23:35:00.000+05:30",
    "endTime": "2018-11-03T05:03:38.000+05:30",
    "startCity": "Amsterdam",
    "startLatLng": "52.3086, 4.76389",
    "endCity": "Dubai",
    "endLatLng": "25.2528, 55.3644",
    "distanceMeters": 5168637.071201665,
    "durationSeconds": 19718.0
  },
  {
    "startTime": "2018-11-03T12:20:02.000+05:30",
    "endTime": "2018-11-03T17:18:31.000+05:30",
    "startCity": "Dubai",
    "startLatLng": "25.2528, 55.3644",
    "endCity": "Bangalore",
    "endLatLng": "13.1979, 77.7063",
    "distanceMeters": 2695157.168672011,
    "durationSeconds": 17909.0
  },
  {
    "startTime": "2018-11-03T19:27:03.000+05:30",
    "endTime": "2018-11-03T22:13:39.000+05:30",
    "startCity": "Bangalore",
    "startLatLng": "13.1979, 77.7063",
    "endCity": "Ranchi",
    "endLatLng": "23.3143, 85.3217",
    "distanceMeters": 1381936.6177294098,
    "durationSeconds": 9996.0
  },
  {
    "startTime": "2018-11-16T16:39:41.000+05:30",
    "endTime": "2018-11-16T20:31:49.000+05:30",
    "startCity": "Ranchi",
    "startLatLng": "23.3143, 85.3217",
    "endCity": "Mumbai",
    "endLatLng": "19.0887, 72.8679",
    "distanceMeters": 1373197.4216461384,
    "durationSeconds": 13928.0
  },
  {
    "startTime": "2018-11-17T06:24:41.000+05:30",
    "endTime": "2018-11-17T14:31:26.000+05:30",
    "startCity": "Mumbai",
    "startLatLng": "19.0887, 72.8679",
    "endCity": "Istanbul",
    "endLatLng": "40.9769, 28.8146",
    "distanceMeters": 4819949.253341212,
    "durationSeconds": 29205.0
  },
  {
    "startTime": "2018-11-17T16:54:00.000+05:30",
    "endTime": "2018-11-17T20:46:49.000+05:30",
    "startCity": "Istanbul",
    "startLatLng": "40.9769, 28.8146",
    "endCity": "Amsterdam",
    "endLatLng": "52.3086, 4.76389",
    "distanceMeters": 2210073.7618773947,
    "durationSeconds": 13969.0
  },
  {
    "startTime": "2019-01-02T10:49:12.000+05:30",
    "endTime": "2019-01-02T12:52:55.000+05:30",
    "startCity": "Budapest",
    "startLatLng": "47.4369, 19.2556",
    "endCity": "Eindhoven",
    "endLatLng": "51.4501, 5.37453",
    "distanceMeters": 1096070.7092992673,
    "durationSeconds": 7423.0
  },
  {
    "startTime": "2019-04-29T01:07:34.000+05:30",
    "endTime": "2019-04-29T03:03:50.000+05:30",
    "startCity": "Stockholm",
    "startLatLng": "59.6519, 17.9186",
    "endCity": "Eindhoven",
    "endLatLng": "51.4501, 5.37453",
    "distanceMeters": 1201983.0666646452,
    "durationSeconds": 6976.0
  },
  {
    "startTime": "2019-05-30T22:30:36.000+05:30",
    "endTime": "2019-05-31T00:41:18.000+05:30",
    "startCity": "Amsterdam",
    "startLatLng": "52.3086, 4.76389",
    "endCity": "Riga",
    "endLatLng": "56.9236, 23.9711",
    "distanceMeters": 1333237.7110172359,
    "durationSeconds": 7842.0
  },
  {
    "startTime": "2019-05-31T01:59:44.000+05:30",
    "endTime": "2019-05-31T02:54:07.000+05:30",
    "startCity": "Riga",
    "startLatLng": "56.9236, 23.9711",
    "endCity": "Helsinki",
    "endLatLng": "60.3172, 24.9633",
    "distanceMeters": 381687.4952586924,
    "durationSeconds": 3263.0
  },
  {
    "startTime": "2019-06-11T09:14:06.000+05:30",
    "endTime": "2019-06-11T10:31:23.000+05:30",
    "startCity": "Vilnius",
    "startLatLng": "54.6341, 25.2858",
    "endCity": "Warsaw",
    "endLatLng": "52.1657, 20.9671",
    "distanceMeters": 396493.6905644088,
    "durationSeconds": 4637.0
  },
  {
    "startTime": "2019-06-11T10:44:40.000+05:30",
    "endTime": "2019-06-11T13:19:28.000+05:30",
    "startCity": "Warsaw",
    "startLatLng": "52.1657, 20.9671",
    "endCity": "Amsterdam",
    "endLatLng": "52.3086, 4.76389",
    "distanceMeters": 1101169.9911887276,
    "durationSeconds": 9288.0
  },
  {
    "startTime": "2019-11-22T11:56:57.000+05:30",
    "endTime": "2019-11-22T14:17:00.000+05:30",
    "startCity": "Amsterdam",
    "startLatLng": "52.3086, 4.76389",
    "endCity": "Napoli",
    "endLatLng": "40.886, 14.2908",
    "distanceMeters": 1461087.0739371856,
    "durationSeconds": 8403.0
  },
  {
    "startTime": "2019-11-25T00:02:28.000+05:30",
    "endTime": "2019-11-25T03:50:47.000+05:30",
    "startCity": "Napoli",
    "startLatLng": "40.886, 14.2908",
    "endCity": "Amsterdam",
    "endLatLng": "52.3086, 4.76389",
    "distanceMeters": 1461087.0739371856,
    "durationSeconds": 13699.0
  },
  {
    "startTime": "2019-12-05T16:46:46.000+05:30",
    "endTime": "2019-12-05T19:11:28.000+05:30",
    "startCity": "Amsterdam",
    "startLatLng": "52.3086, 4.76389",
    "endCity": "Helsinki",
    "endLatLng": "60.3172, 24.9633",
    "distanceMeters": 1521303.8592587858,
    "durationSeconds": 8682.0
  },
  {
    "startTime": "2019-12-05T23:06:08.000+05:30",
    "endTime": "2019-12-06T07:21:22.000+05:30",
    "startCity": "Helsinki",
    "startLatLng": "60.3172, 24.9633",
    "endCity": "New Delhi",
    "endLatLng": "28.5665, 77.1031",
    "distanceMeters": 5223057.218016545,
    "durationSeconds": 29714.0
  },
  {
    "startTime": "2019-12-06T11:31:08.000+05:30",
    "endTime": "2019-12-06T13:28:57.000+05:30",
    "startCity": "New Delhi",
    "startLatLng": "28.5665, 77.1031",
    "endCity": "Ranchi",
    "endLatLng": "23.3143, 85.3217",
    "distanceMeters": 1007666.353305645,
    "durationSeconds": 7069.0
  },
  {
    "startTime": "2019-12-21T20:11:24.000+05:30",
    "endTime": "2019-12-21T22:44:46.000+05:30",
    "startCity": "Ranchi",
    "startLatLng": "23.3143, 85.3217",
    "endCity": "New Delhi",
    "endLatLng": "28.5665, 77.1031",
    "distanceMeters": 1007666.353305645,
    "durationSeconds": 9202.0
  },
  {
    "startTime": "2019-12-22T09:29:56.000+05:30",
    "endTime": "2019-12-22T18:08:57.000+05:30",
    "startCity": "New Delhi",
    "startLatLng": "28.5665, 77.1031",
    "endCity": "Helsinki",
    "endLatLng": "60.3172, 24.9633",
    "distanceMeters": 5223057.218016545,
    "durationSeconds": 31141.0
  },
  {
    "startTime": "2019-12-22T20:37:28.000+05:30",
    "endTime": "2019-12-23T00:02:41.000+05:30",
    "startCity": "Helsinki",
    "startLatLng": "60.3172, 24.9633",
    "endCity": "Amsterdam",
    "endLatLng": "52.3086, 4.76389",
    "distanceMeters": 1521303.8592587858,
    "durationSeconds": 12313.0
  },
  {
    "startTime": "2020-08-30T20:20:31.000+05:30",
    "endTime": "2020-08-30T21:33:51.000+05:30",
    "startCity": "Bale/Mulhouse",
    "startLatLng": "47.5896, 7.52991",
    "endCity": "Amsterdam",
    "endLatLng": "52.3086, 4.76389",
    "distanceMeters": 560703.1204870371,
    "durationSeconds": 4400.0
  },
  {
    "startTime": "2021-03-07T22:27:44.000+05:30",
    "endTime": "2021-03-07T23:48:50.000+05:30",
    "startCity": "Amsterdam",
    "startLatLng": "52.3086, 4.76389",
    "endCity": "Frankfurt am Main",
    "endLatLng": "50.0264, 8.54313",
    "distanceMeters": 365741.17150924116,
    "durationSeconds": 4866.0
  },
  {
    "startTime": "2021-03-08T00:14:54.000+05:30",
    "endTime": "2021-03-08T08:03:24.000+05:30",
    "startCity": "Frankfurt am Main",
    "startLatLng": "50.0264, 8.54313",
    "endCity": "New Delhi",
    "endLatLng": "28.5665, 77.1031",
    "distanceMeters": 6122631.49497524,
    "durationSeconds": 28110.0
  },
  {
    "startTime": "2021-03-08T14:27:42.000+05:30",
    "endTime": "2021-03-08T16:41:38.000+05:30",
    "startCity": "New Delhi",
    "startLatLng": "28.5665, 77.1031",
    "endCity": "Ranchi",
    "endLatLng": "23.3143, 85.3217",
    "distanceMeters": 1007666.353305645,
    "durationSeconds": 8036.0
  },
  {
    "startTime": "2021-03-19T16:51:59.000+05:30",
    "endTime": "2021-03-19T19:49:01.000+05:30",
    "startCity": "Ranchi",
    "startLatLng": "23.3143, 85.3217",
    "endCity": "Bangalore",
    "endLatLng": "13.1979, 77.7063",
    "distanceMeters": 1381936.6177294098,
    "durationSeconds": 10622.0
  },
  {
    "startTime": "2021-03-27T13:41:54.000+05:30",
    "endTime": "2021-03-27T16:33:12.000+05:30",
    "startCity": "Bangalore",
    "startLatLng": "13.1979, 77.7063",
    "endCity": "Ranchi",
    "endLatLng": "23.3143, 85.3217",
    "distanceMeters": 1381936.6177294098,
    "durationSeconds": 10278.0
  },
  {
    "startTime": "2021-05-10T15:23:32.000+05:30",
    "endTime": "2021-05-10T16:35:53.000+05:30",
    "startCity": "Ranchi",
    "startLatLng": "23.3143, 85.3217",
    "endCity": "Mumbai",
    "endLatLng": "19.0887, 72.8679",
    "distanceMeters": 1373197.4216461384,
    "durationSeconds": 4341.0
  },
  {
    "startTime": "2021-05-11T02:18:58.000+05:30",
    "endTime": "2021-05-11T11:20:01.000+05:30",
    "startCity": "Mumbai",
    "startLatLng": "19.0887, 72.8679",
    "endCity": "Amsterdam",
    "endLatLng": "52.3086, 4.76389",
    "distanceMeters": 6859514.369532459,
    "durationSeconds": 32463.0
  },
  {
    "startTime": "2021-12-06T16:14:30.000+05:30",
    "endTime": "2021-12-06T19:56:40.000+05:30",
    "startCity": "Amsterdam",
    "startLatLng": "52.3086, 4.76389",
    "endCity": "Helsinki",
    "endLatLng": "60.3172, 24.9633",
    "distanceMeters": 1521303.8592587858,
    "durationSeconds": 13330.0
  },
  {
    "startTime": "2021-12-07T00:30:24.000+05:30",
    "endTime": "2021-12-07T09:18:31.000+05:30",
    "startCity": "Helsinki",
    "startLatLng": "60.3172, 24.9633",
    "endCity": "New Delhi",
    "endLatLng": "28.5665, 77.1031",
    "distanceMeters": 5223057.218016545,
    "durationSeconds": 31687.0
  },
  {
    "startTime": "2021-12-07T11:55:52.000+05:30",
    "endTime": "2021-12-07T15:37:54.000+05:30",
    "startCity": "New Delhi",
    "startLatLng": "28.5665, 77.1031",
    "endCity": "Bangalore",
    "endLatLng": "13.1979, 77.7063",
    "distanceMeters": 1710049.0719799472,
    "durationSeconds": 13322.0
  },
  {
    "startTime": "2021-12-12T12:55:00.000+05:30",
    "endTime": "2021-12-12T15:15:59.000+05:30",
    "startCity": "Bangalore",
    "startLatLng": "13.1979, 77.7063",
    "endCity": "Ranchi",
    "endLatLng": "23.3143, 85.3217",
    "distanceMeters": 1381936.6177294098,
    "durationSeconds": 8459.0
  },
  {
    "startTime": "2021-12-24T14:12:26.000+05:30",
    "endTime": "2021-12-24T16:44:49.000+05:30",
    "startCity": "Ranchi",
    "startLatLng": "23.3143, 85.3217",
    "endCity": "Mumbai",
    "endLatLng": "19.0887, 72.8679",
    "distanceMeters": 1373197.4216461384,
    "durationSeconds": 9143.0
  },
  {
    "startTime": "2021-12-24T20:55:10.000+05:30",
    "endTime": "2021-12-25T00:15:35.000+05:30",
    "startCity": "Mumbai",
    "startLatLng": "19.0887, 72.8679",
    "endCity": "Amritsar",
    "endLatLng": "31.7096, 74.7973",
    "distanceMeters": 1416608.333273979,
    "durationSeconds": 12025.0
  },
  {
    "startTime": "2021-12-28T22:48:45.000+05:30",
    "endTime": "2021-12-29T01:34:46.000+05:30",
    "startCity": "Amritsar",
    "startLatLng": "31.7096, 74.7973",
    "endCity": "Dabolim",
    "endLatLng": "15.3808, 73.8314",
    "distanceMeters": 1818319.0317856683,
    "durationSeconds": 9961.0
  },
  {
    "startTime": "2022-01-02T14:56:13.000+05:30",
    "endTime": "2022-01-02T16:09:58.000+05:30",
    "startCity": "Dabolim",
    "startLatLng": "15.3808, 73.8314",
    "endCity": "Hyderabad",
    "endLatLng": "17.23132, 78.42986",
    "distanceMeters": 532115.7975619939,
    "durationSeconds": 4425.0
  },
  {
    "startTime": "2022-01-02T18:26:28.000+05:30",
    "endTime": "2022-01-02T20:11:11.000+05:30",
    "startCity": "Hyderabad",
    "startLatLng": "17.23132, 78.42986",
    "endCity": "Ranchi",
    "endLatLng": "23.3143, 85.3217",
    "distanceMeters": 986671.5005591391,
    "durationSeconds": 6283.0
  },
  {
    "startTime": "2022-01-12T19:50:39.000+05:30",
    "endTime": "2022-01-12T21:56:14.000+05:30",
    "startCity": "Ranchi",
    "startLatLng": "23.3143, 85.3217",
    "endCity": "New Delhi",
    "endLatLng": "28.5665, 77.1031",
    "distanceMeters": 1007666.353305645,
    "durationSeconds": 7535.0
  },
  {
    "startTime": "2022-01-18T00:58:08.000+05:30",
    "endTime": "2022-01-18T12:08:36.000+05:30",
    "startCity": "New Delhi",
    "startLatLng": "28.5665, 77.1031",
    "endCity": "Paris",
    "endLatLng": "49.0128, 2.55",
    "distanceMeters": 6565372.225719091,
    "durationSeconds": 40228.0
  },
  {
    "startTime": "2022-01-18T14:20:39.000+05:30",
    "endTime": "2022-01-18T15:46:37.000+05:30",
    "startCity": "Paris",
    "startLatLng": "49.0128, 2.55",
    "endCity": "Amsterdam",
    "endLatLng": "52.3086, 4.76389",
    "distanceMeters": 398269.4755656135,
    "durationSeconds": 5158.0
  },
  {
    "startTime": "2022-02-06T11:40:00.000+05:30",
    "endTime": "2022-02-06T16:09:54.000+05:30",
    "startCity": "Amsterdam",
    "startLatLng": "52.3086, 4.76389",
    "endCity": "Tenerife Island",
    "endLatLng": "28.0445, -16.5725",
    "distanceMeters": 3223917.2857265077,
    "durationSeconds": 16194.0
  },
  {
    "startTime": "2022-02-20T16:52:48.000+05:30",
    "endTime": "2022-02-20T22:18:54.000+05:30",
    "startCity": "Tenerife Island",
    "startLatLng": "28.0445, -16.5725",
    "endCity": "Amsterdam",
    "endLatLng": "52.3086, 4.76389",
    "distanceMeters": 3223917.2857265077,
    "durationSeconds": 19566.0
  },
  {
    "startTime": "2022-03-12T00:14:41.000+05:30",
    "endTime": "2022-03-12T01:39:24.000+05:30",
    "startCity": "Amsterdam",
    "startLatLng": "52.3086, 4.76389",
    "endCity": "Zurich",
    "endLatLng": "47.4647, 8.54917",
    "distanceMeters": 602832.6999472302,
    "durationSeconds": 5083.0
  },
  {
    "startTime": "2022-03-15T16:49:16.000+05:30",
    "endTime": "2022-03-15T18:35:45.000+05:30",
    "startCity": "Zurich",
    "startLatLng": "47.4647, 8.54917",
    "endCity": "Amsterdam",
    "endLatLng": "52.3086, 4.76389",
    "distanceMeters": 602832.6999472302,
    "durationSeconds": 6389.0
  },
  {
    "startTime": "2022-04-02T16:26:10.000+05:30",
    "endTime": "2022-04-03T03:02:51.000+05:30",
    "startCity": "Amsterdam",
    "startLatLng": "52.3086, 4.76389",
    "endCity": "Las Vegas",
    "endLatLng": "36.08004, -115.15223",
    "distanceMeters": 8597135.643788153,
    "durationSeconds": 38201.0
  },
  {
    "startTime": "2022-04-06T04:28:12.000+05:30",
    "endTime": "2022-04-06T14:57:58.000+05:30",
    "startCity": "Las Vegas",
    "startLatLng": "36.08004, -115.15223",
    "endCity": "Amsterdam",
    "endLatLng": "52.3086, 4.76389",
    "distanceMeters": 8597135.643788153,
    "durationSeconds": 37786.0
  },
  {
    "startTime": "2022-05-20T21:47:21.000+05:30",
    "endTime": "2022-05-21T00:43:08.000+05:30",
    "startCity": "Amsterdam",
    "startLatLng": "52.3086, 4.76389",
    "endCity": "Reykjavik",
    "endLatLng": "63.985, -22.6056",
    "distanceMeters": 2037661.6986835955,
    "durationSeconds": 10547.0
  },
  {
    "startTime": "2022-05-29T16:21:12.000+05:30",
    "endTime": "2022-05-29T19:18:58.000+05:30",
    "startCity": "Reykjavik",
    "startLatLng": "63.985, -22.6056",
    "endCity": "Amsterdam",
    "endLatLng": "52.3086, 4.76389",
    "distanceMeters": 2037661.6986835955,
    "durationSeconds": 10666.0
  },
  {
    "startTime": "2022-10-18T15:27:23.000+05:30",
    "endTime": "2022-10-19T00:42:47.000+05:30",
    "startCity": "Amsterdam",
    "startLatLng": "52.3086, 4.76389",
    "endCity": "Mumbai",
    "endLatLng": "19.0887, 72.8679",
    "distanceMeters": 6859514.369532459,
    "durationSeconds": 33324.0
  },
  {
    "startTime": "2022-10-20T14:10:43.000+05:30",
    "endTime": "2022-10-20T16:27:03.000+05:30",
    "startCity": "Mumbai",
    "startLatLng": "19.0887, 72.8679",
    "endCity": "Ranchi",
    "endLatLng": "23.3143, 85.3217",
    "distanceMeters": 1373197.4216461384,
    "durationSeconds": 8180.0
  },
  {
    "startTime": "2022-11-01T15:57:34.000+05:30",
    "endTime": "2022-11-01T18:41:03.000+05:30",
    "startCity": "Ranchi",
    "startLatLng": "23.3143, 85.3217",
    "endCity": "Mumbai",
    "endLatLng": "19.0887, 72.8679",
    "distanceMeters": 1373197.4216461384,
    "durationSeconds": 9809.0
  },
  {
    "startTime": "2022-11-02T04:05:08.000+05:30",
    "endTime": "2022-11-02T13:23:45.000+05:30",
    "startCity": "Mumbai",
    "startLatLng": "19.0887, 72.8679",
    "endCity": "Amsterdam",
    "endLatLng": "52.3086, 4.76389",
    "distanceMeters": 6859514.369532459,
    "durationSeconds": 33517.0
  },
  {
    "startTime": "2022-11-28T21:15:07.000+05:30",
    "endTime": "2022-11-28T23:57:09.000+05:30",
    "startCity": "Amsterdam",
    "startLatLng": "52.3086, 4.76389",
    "endCity": "Faro",
    "endLatLng": "37.0144, -7.96591",
    "distanceMeters": 1969768.8617614773,
    "durationSeconds": 9722.0
  },
  {
    "startTime": "2022-12-12T19:47:01.000+05:30",
    "endTime": "2022-12-12T22:25:50.000+05:30",
    "startCity": "Porto",
    "startLatLng": "41.2481, -8.68139",
    "endCity": "Amsterdam",
    "endLatLng": "52.3086, 4.76389",
    "distanceMeters": 1594972.736895538,
    "durationSeconds": 9529.0
  },
  {
    "startTime": "2023-03-06T19:57:46.000+05:30",
    "endTime": "2023-03-07T02:29:12.000+05:30",
    "startCity": "Amsterdam",
    "startLatLng": "52.3086, 4.76389",
    "endCity": "Doha",
    "endLatLng": "25.26059, 51.61377",
    "distanceMeters": 4924525.744525632,
    "durationSeconds": 23486.0
  },
  {
    "startTime": "2023-03-07T04:23:19.000+05:30",
    "endTime": "2023-03-07T08:39:23.000+05:30",
    "startCity": "Doha",
    "startLatLng": "25.26059, 51.61377",
    "endCity": "New Delhi",
    "endLatLng": "28.5665, 77.1031",
    "distanceMeters": 2548989.078809759,
    "durationSeconds": 15364.0
  },
  {
    "startTime": "2023-03-07T14:14:49.000+05:30",
    "endTime": "2023-03-07T16:32:32.000+05:30",
    "startCity": "New Delhi",
    "startLatLng": "28.5665, 77.1031",
    "endCity": "Ranchi",
    "endLatLng": "23.3143, 85.3217",
    "distanceMeters": 1007666.353305645,
    "durationSeconds": 8263.0
  },
  {
    "startTime": "2023-03-20T08:03:55.000+05:30",
    "endTime": "2023-03-20T10:35:44.000+05:30",
    "startCity": "Ranchi",
    "startLatLng": "23.3143, 85.3217",
    "endCity": "Bangalore",
    "endLatLng": "13.1979, 77.7063",
    "distanceMeters": 1381936.6177294098,
    "durationSeconds": 9109.0
  },
  {
    "startTime": "2023-03-26T11:19:27.000+05:30",
    "endTime": "2023-03-26T13:47:19.000+05:30",
    "startCity": "Bangalore",
    "startLatLng": "13.1979, 77.7063",
    "endCity": "Port Blair",
    "endLatLng": "11.6412, 92.7297",
    "distanceMeters": 1640317.389359735,
    "durationSeconds": 8872.0
  },
  {
    "startTime": "2023-04-02T11:42:25.000+05:30",
    "endTime": "2023-04-02T14:02:20.000+05:30",
    "startCity": "Port Blair",
    "startLatLng": "11.6412, 92.7297",
    "endCity": "Kolkata",
    "endLatLng": "22.6547, 88.4467",
    "distanceMeters": 1306147.7857981068,
    "durationSeconds": 8395.0
  },
  {
    "startTime": "2023-04-02T15:57:22.000+05:30",
    "endTime": "2023-04-02T17:24:07.000+05:30",
    "startCity": "Kolkata",
    "startLatLng": "22.6547, 88.4467",
    "endCity": "Ranchi",
    "endLatLng": "23.3143, 85.3217",
    "distanceMeters": 328189.28690942837,
    "durationSeconds": 5205.0
  },
  {
    "startTime": "2023-04-12T16:38:26.000+05:30",
    "endTime": "2023-04-12T18:27:56.000+05:30",
    "startCity": "Ranchi",
    "startLatLng": "23.3143, 85.3217",
    "endCity": "New Delhi",
    "endLatLng": "28.5665, 77.1031",
    "distanceMeters": 1007666.353305645,
    "durationSeconds": 6570.0
  },
  {
    "startTime": "2023-04-13T06:55:40.000+05:30",
    "endTime": "2023-04-13T13:24:07.000+05:30",
    "startCity": "New Delhi",
    "startLatLng": "28.5665, 77.1031",
    "endCity": "Istanbul",
    "endLatLng": "41.27533, 28.752",
    "distanceMeters": 4564967.009726018,
    "durationSeconds": 23307.0
  },
  {
    "startTime": "2023-04-13T16:01:17.000+05:30",
    "endTime": "2023-04-13T21:02:26.000+05:30",
    "startCity": "Istanbul",
    "startLatLng": "41.27533, 28.752",
    "endCity": "Amsterdam",
    "endLatLng": "52.3086, 4.76389",
    "distanceMeters": 2183757.332840675,
    "durationSeconds": 18069.0
  },
  {
    "startTime": "2023-06-02T18:02:21.000+05:30",
    "endTime": "2023-06-03T05:33:49.000+05:30",
    "startCity": "Amsterdam",
    "startLatLng": "52.3086, 4.76389",
    "endCity": "San Francisco",
    "endLatLng": "37.61881, -122.37542",
    "distanceMeters": 8785557.620456364,
    "durationSeconds": 41488.0
  },
  {
    "startTime": "2023-08-01T03:14:15.000+05:30",
    "endTime": "2023-08-01T14:46:16.000+05:30",
    "startCity": "San Francisco",
    "startLatLng": "37.61881, -122.37542",
    "endCity": "Amsterdam",
    "endLatLng": "52.3086, 4.76389",
    "distanceMeters": 8785557.620456364,
    "durationSeconds": 41521.0
  },
  {
    "startTime": "2023-11-30T20:10:00.000+05:30",
    "endTime": "2023-12-01T01:04:51.000+05:30",
    "startCity": "Amsterdam",
    "startLatLng": "52.3086, 4.76389",
    "endCity": "Cairo",
    "endLatLng": "30.1219, 31.4056",
    "distanceMeters": 3287304.734752271,
    "durationSeconds": 17691.0
  },
  {
    "startTime": "2023-12-01T03:31:50.000+05:30",
    "endTime": "2023-12-01T09:21:57.000+05:30",
    "startCity": "Cairo",
    "startLatLng": "30.1219, 31.4056",
    "endCity": "New Delhi",
    "endLatLng": "28.5665, 77.1031",
    "distanceMeters": 4402922.9507299075,
    "durationSeconds": 21007.0
  },
  {
    "startTime": "2023-12-01T14:34:39.000+05:30",
    "endTime": "2023-12-01T16:29:23.000+05:30",
    "startCity": "New Delhi",
    "startLatLng": "28.5665, 77.1031",
    "endCity": "Ranchi",
    "endLatLng": "23.3143, 85.3217",
    "distanceMeters": 1007666.353305645,
    "durationSeconds": 6884.0
  },
  {
    "startTime": "2023-12-29T14:39:50.000+05:30",
    "endTime": "2023-12-29T15:37:13.000+05:30",
    "startCity": "Ranchi",
    "startLatLng": "23.3143, 85.3217",
    "endCity": "Patna",
    "endLatLng": "25.5913, 85.088",
    "distanceMeters": 254293.2594799335,
    "durationSeconds": 3443.0
  },
  {
    "startTime": "2024-02-10T08:43:18.000+05:30",
    "endTime": "2024-02-10T11:17:12.000+05:30",
    "startCity": "Ranchi",
    "startLatLng": "23.3143, 85.3217",
    "endCity": "Bangalore",
    "endLatLng": "13.1979, 77.7063",
    "distanceMeters": 1381936.6177294098,
    "durationSeconds": 9234.0
  },
  {
    "startTime": "2024-02-13T01:47:04.000+05:30",
    "endTime": "2024-02-13T10:50:00.000+05:30",
    "startCity": "New Delhi",
    "startLatLng": "28.5665, 77.1031",
    "endCity": "Zurich",
    "endLatLng": "47.4647, 8.54917",
    "distanceMeters": 6147843.234833134,
    "durationSeconds": 32576.0
  },
  {
    "startTime": "2024-02-13T11:50:00.000+05:30",
    "endTime": "2024-02-13T13:34:32.000+05:30",
    "startCity": "Zurich",
    "startLatLng": "47.4647, 8.54917",
    "endCity": "Amsterdam",
    "endLatLng": "52.3086, 4.76389",
    "distanceMeters": 602832.6999472302,
    "durationSeconds": 6272.0
  },
  {
    "startTime": "2024-03-03T14:35:44.000+05:30",
    "endTime": "2024-03-03T16:00:00.000+05:30",
    "startCity": "Amsterdam",
    "startLatLng": "52.3086, 4.76389",
    "endCity": "Zurich",
    "endLatLng": "47.4647, 8.54917",
    "distanceMeters": 602832.6999472302,
    "durationSeconds": 5056.0
  },
  {
    "startTime": "2024-03-03T16:43:00.000+05:30",
    "endTime": "2024-03-04T00:06:00.000+05:30",
    "startCity": "Zurich",
    "startLatLng": "47.4647, 8.54917",
    "endCity": "New Delhi",
    "endLatLng": "28.5665, 77.1031",
    "distanceMeters": 6147843.234833134,
    "durationSeconds": 26580.0
  },
  {
    "startTime": "2024-03-04T06:24:15.000+05:30",
    "endTime": "2024-03-04T08:30:48.000+05:30",
    "startCity": "New Delhi",
    "startLatLng": "28.5665, 77.1031",
    "endCity": "Ranchi",
    "endLatLng": "23.3143, 85.3217",
    "distanceMeters": 1007666.353305645,
    "durationSeconds": 7593.0
  },
  {
    "startTime": "2024-03-15T16:27:38.000+05:30",
    "endTime": "2024-03-15T19:03:28.000+05:30",
    "startCity": "Ranchi",
    "startLatLng": "23.3143, 85.3217",
    "endCity": "Mumbai",
    "endLatLng": "19.0887, 72.8679",
    "distanceMeters": 1373197.4216461384,
    "durationSeconds": 9350.0
  },
  {
    "startTime": "2024-03-21T09:27:20.000+05:30",
    "endTime": "2024-03-21T11:15:50.000+05:30",
    "startCity": "Mumbai",
    "startLatLng": "19.0887, 72.8679",
    "endCity": "Cochin",
    "endLatLng": "10.152, 76.4019",
    "distanceMeters": 1063812.0693475385,
    "durationSeconds": 6510.0
  },
  {
    "startTime": "2024-03-25T16:09:40.000+05:30",
    "endTime": "2024-03-25T17:35:00.000+05:30",
    "startCity": "Cochin",
    "startLatLng": "10.152, 76.4019",
    "endCity": "Hyderabad",
    "endLatLng": "17.23132, 78.42986",
    "distanceMeters": 817060.5843388976,
    "durationSeconds": 5120.0
  },
  {
    "startTime": "2024-03-25T18:30:00.000+05:30",
    "endTime": "2024-03-25T20:16:49.000+05:30",
    "startCity": "Hyderabad",
    "startLatLng": "17.23132, 78.42986",
    "endCity": "Ranchi",
    "endLatLng": "23.3143, 85.3217",
    "distanceMeters": 986671.5005591391,
    "durationSeconds": 6409.0
  },
  {
    "startTime": "2024-04-05T17:38:35.000+05:30",
    "endTime": "2024-04-05T19:57:26.000+05:30",
    "startCity": "Ranchi",
    "startLatLng": "23.3143, 85.3217",
    "endCity": "New Delhi",
    "endLatLng": "28.5665, 77.1031",
    "distanceMeters": 1007666.353305645,
    "durationSeconds": 8331.0
  },
  {
    "startTime": "2024-04-08T15:06:38.000+05:30",
    "endTime": "2024-04-08T17:15:52.000+05:30",
    "startCity": "New Delhi",
    "startLatLng": "28.5665, 77.1031",
    "endCity": "Ranchi",
    "endLatLng": "23.3143, 85.3217",
    "distanceMeters": 1007666.353305645,
    "durationSeconds": 7754.0
  },
  {
    "startTime": "2024-05-31T13:01:32.000+05:30",
    "endTime": "2024-05-31T14:12:36.000+05:30",
    "startCity": "Ranchi",
    "startLatLng": "23.3143, 85.3217",
    "endCity": "Kolkata",
    "endLatLng": "22.6547, 88.4467",
    "distanceMeters": 328189.28690942837,
    "durationSeconds": 4264.0
  },
  {
    "startTime": "2024-05-31T16:39:45.000+05:30",
    "endTime": "2024-05-31T19:06:18.000+05:30",
    "startCity": "Kolkata",
    "startLatLng": "22.6547, 88.4467",
    "endCity": "Ahmedabad",
    "endLatLng": "23.0772, 72.6347",
    "distanceMeters": 1619942.096970024,
    "durationSeconds": 8793.0
  },
  {
    "startTime": "2024-06-01T07:12:24.000+05:30",
    "endTime": "2024-06-01T09:39:08.000+05:30",
    "startCity": "Ahmedabad",
    "startLatLng": "23.0772, 72.6347",
    "endCity": "Srinagar",
    "endLatLng": "33.9871, 74.7742",
    "distanceMeters": 1230896.970990956,
    "durationSeconds": 8804.0
  },
  {
    "startTime": "2024-06-11T15:31:30.000+05:30",
    "endTime": "2024-06-11T18:24:24.000+05:30",
    "startCity": "Srinagar",
    "startLatLng": "33.9871, 74.7742",
    "endCity": "New Delhi",
    "endLatLng": "28.5665, 77.1031",
    "distanceMeters": 642032.7569391722,
    "durationSeconds": 10374.0
  },
  {
    "startTime": "2024-06-12T12:56:31.000+05:30",
    "endTime": "2024-06-12T15:01:21.000+05:30",
    "startCity": "New Delhi",
    "startLatLng": "28.5665, 77.1031",
    "endCity": "Ranchi",
    "endLatLng": "23.3143, 85.3217",
    "distanceMeters": 1007666.353305645,
    "durationSeconds": 7490.0
  },
  {
    "startTime": "2024-07-15T08:29:18.000+05:30",
    "endTime": "2024-07-15T10:43:40.000+05:30",
    "startCity": "Ranchi",
    "startLatLng": "23.3143, 85.3217",
    "endCity": "Bangalore",
    "endLatLng": "13.1979, 77.7063",
    "distanceMeters": 1381936.6177294098,
    "durationSeconds": 8062.0
  },
  {
    "startTime": "2024-07-28T17:32:56.000+05:30",
    "endTime": "2024-07-28T19:54:03.000+05:30",
    "startCity": "Bangalore",
    "startLatLng": "13.1979, 77.7063",
    "endCity": "Ranchi",
    "endLatLng": "23.3143, 85.3217",
    "distanceMeters": 1381936.6177294098,
    "durationSeconds": 8467.0
  },
  {
    "startTime": "2024-09-07T10:55:50.000+05:30",
    "endTime": "2024-09-07T12:35:24.000+05:30",
    "startCity": "Ranchi",
    "startLatLng": "23.3143, 85.3217",
    "endCity": "Hyderabad",
    "endLatLng": "17.23132, 78.42986",
    "distanceMeters": 986671.5005591391,
    "durationSeconds": 5974.0
  },
  {
    "startTime": "2024-09-15T18:51:41.000+05:30",
    "endTime": "2024-09-15T20:43:14.000+05:30",
    "startCity": "Hyderabad",
    "startLatLng": "17.23132, 78.42986",
    "endCity": "Ranchi",
    "endLatLng": "23.3143, 85.3217",
    "distanceMeters": 986671.5005591391,
    "durationSeconds": 6693.0
  },
  {
    "startTime": "2024-12-21T14:35:10.000+05:30",
    "endTime": "2024-12-21T16:51:14.000+05:30",
    "startCity": "Ranchi",
    "startLatLng": "23.3143, 85.3217",
    "endCity": "New Delhi",
    "endLatLng": "28.5665, 77.1031",
    "distanceMeters": 1007666.353305645,
    "durationSeconds": 8164.0
  },
  {
    "startTime": "2024-12-23T07:35:05.000+05:30",
    "endTime": "2024-12-23T10:05:00.000+05:30",
    "startCity": "New Delhi",
    "startLatLng": "28.5665, 77.1031",
    "endCity": "Istanbul",
    "endLatLng": "41.27533, 28.752",
    "distanceMeters": 4564967.009726018,
    "durationSeconds": 8995.0
  },
  {
    "startTime": "2024-12-30T17:55:41.000+05:30",
    "endTime": "2024-12-30T18:54:52.000+05:30",
    "startCity": "Rome",
    "startLatLng": "41.8045, 12.2508",
    "endCity": "Palermo",
    "endLatLng": "38.176, 13.091",
    "distanceMeters": 409764.345991839,
    "durationSeconds": 3551.0
  },
  {
    "startTime": "2025-01-18T18:30:17.000+05:30",
    "endTime": "2025-01-18T20:15:44.000+05:30",
    "startCity": "Catania",
    "startLatLng": "37.4668, 15.0664",
    "endCity": "Milan",
    "endLatLng": "45.4451, 9.27674",
    "distanceMeters": 1009198.4272145035,
    "durationSeconds": 6327.0
  },
  {
    "startTime": "2025-01-18T21:32:44.000+05:30",
    "endTime": "2025-01-18T23:28:50.000+05:30",
    "startCity": "Milan",
    "startLatLng": "45.4451, 9.27674",
    "endCity": "Amsterdam",
    "endLatLng": "52.3086, 4.76389",
    "distanceMeters": 831081.3937264449,
    "durationSeconds": 6966.0
  },
  {
    "startTime": "2025-01-29T21:51:40.000+05:30",
    "endTime": "2025-01-30T10:24:39.000+05:30",
    "startCity": "Paris",
    "startLatLng": "48.7253, 2.35944",
    "endCity": "San Francisco",
    "endLatLng": "37.61881, -122.37542",
    "distanceMeters": 8977111.55662182,
    "durationSeconds": 45179.0
  },
  {
    "startTime": "2025-04-05T17:41:41.000+05:30",
    "endTime": "2025-04-05T19:51:27.000+05:30",
    "startCity": "New Delhi",
    "startLatLng": "28.5665, 77.1031",
    "endCity": "Ranchi",
    "endLatLng": "23.3143, 85.3217",
    "distanceMeters": 1007666.353305645,
    "durationSeconds": 7786.0
  },
  {
    "startTime": "2025-05-31T17:38:07.000+05:30",
    "endTime": "2025-05-31T19:47:03.000+05:30",
    "startCity": "Ranchi",
    "startLatLng": "23.3143, 85.3217",
    "endCity": "New Delhi",
    "endLatLng": "28.5665, 77.1031",
    "distanceMeters": 1007666.353305645,
    "durationSeconds": 7736.0
  },
  {
    "startTime": "2025-06-02T05:28:19.000+05:30",
    "endTime": "2025-06-02T10:47:20.000+05:30",
    "startCity": "New Delhi",
    "startLatLng": "28.5665, 77.1031",
    "endCity": "Hong Kong",
    "endLatLng": "22.3089, 113.915",
    "distanceMeters": 3746398.1358424225,
    "durationSeconds": 19141.0
  },
  {
    "startTime": "2025-06-20T11:31:23.000+05:30",
    "endTime": "2025-06-20T15:14:35.000+05:30",
    "startCity": "Beijing",
    "startLatLng": "39.5, 116.4",
    "endCity": "Hong Kong",
    "endLatLng": "22.3089, 113.915",
    "distanceMeters": 1925981.1139403665,
    "durationSeconds": 13392.0
  },
  {
    "startTime": "2025-06-21T12:58:22.000+05:30",
    "endTime": "2025-06-21T18:57:45.000+05:30",
    "startCity": "Hong Kong",
    "startLatLng": "22.3089, 113.915",
    "endCity": "New Delhi",
    "endLatLng": "28.5665, 77.1031",
    "distanceMeters": 3746398.1358424225,
    "durationSeconds": 21563.0
  },
  {
    "startTime": "2025-06-22T17:57:02.000+05:30",
    "endTime": "2025-06-22T20:04:53.000+05:30",
    "startCity": "New Delhi",
    "startLatLng": "28.5665, 77.1031",
    "endCity": "Ranchi",
    "endLatLng": "23.3143, 85.3217",
    "distanceMeters": 1007666.353305645,
    "durationSeconds": 7671.0
  }
]